[{"$id":"1","ID":"1fe36d7e-d0bb-412a-b42f-ee1744944f96","LastUpdated":"2015-09-18T23:02:42.773","Name":"Gemeente Pijnacker-Nootdorp","AddressLine1":"Oranjeplein 1","Suburb":"Pijnacker Centrum/Dorp","City":"Pijnacker","Area":"","PostCode":"2641 EZ","Ref":"","AssetCount":1,"Lat":"52,00639","Lng":"4,391605","ChildLocations":[{"$id":"2","ID":"97dae745-0910-4eda-8d5f-9b0b3cc3453a","LastUpdated":"2015-09-18T23:02:44.143","Name":"01 Pijnacker","AddressLine1":"","Suburb":"","City":"","Area":"","PostCode":"","Ref":"","AssetCount":0,"Lat":"0","Lng":"0","ChildLocations":[{"$id":"3","ID":"f9bf92d8-7971-4790-97c4-98f959c7b906","LastUpdated":"2015-09-18T23:02:45.37","Name":"01 Pijnacker-Centrum / Dorp","AddressLine1":"","Suburb":"","City":"","Area":"","PostCode":"","Ref":"","AssetCount":0,"Lat":"0","Lng":"0","ChildLocations":[{"$id":"4","ID":"39a81848-ee3a-4f83-b525-a9f5e338a63c","LastUpdated":"2015-09-18T23:02:43.033","Name":"01.01.01 Kerkweg 33","AddressLine1":"Kerkweg 33","Suburb":"Pijnacker-Centrum / Dorp","City":"Pijnacker","Area":"","PostCode":"2641 GB","Ref":"","AssetCount":6,"Lat":"52,01743","Lng":"4,431211","ChildLocations":[],"Images":[{"$id":"5","ID":"3c876269-45d1-4af3-a6e1-47978d92ddbc","LastUpdated":"2012-04-23T11:55:50","URI":"http://www.playmapping.com/GetImage.ashx?g=3c876269-45d1-4af3-a6e1-47978d92ddbc&w=350&h=350","Description":""},{"$id":"6","ID":"ee521958-7549-47ec-adc1-a7f221245e92","LastUpdated":"2016-09-01T16:08:38.183","URI":"http://www.playmapping.com/GetImage.ashx?g=ee521958-7549-47ec-adc1-a7f221245e92&w=350&h=350","Description":""}],"Documents":[]},{"$id":"7","ID":"abb6345c-dbdd-4703-92ca-5a800d470e20","LastUpdated":"2017-02-05T12:03:50.273","Name":"01.01.02 Julianalaan 47","AddressLine1":"Julianalaan 47","Suburb":"Pijnacker-Centrum / Dorp","City":"Pijnacker","Area":"","PostCode":"2641 HB","Ref":"","AssetCount":12,"Lat":"52,01571","Lng":"4,433809","ChildLocations":[],"Images":[{"$id":"8","ID":"34d192c0-8f5b-4b8b-af61-0ef299c14ac8","LastUpdated":"2016-10-06T13:20:22.66","URI":"http://www.playmapping.com/GetImage.ashx?g=34d192c0-8f5b-4b8b-af61-0ef299c14ac8&w=350&h=350","Description":""},{"$id":"9","ID":"6f1d200f-93d1-4dea-ac9a-82214570d89a","LastUpdated":"2014-04-23T09:17:01.91","URI":"http://www.playmapping.com/GetImage.ashx?g=6f1d200f-93d1-4dea-ac9a-82214570d89a&w=350&h=350","Description":""}],"Documents":[{"$id":"10","ID":"0053f5ee-8db7-4ce8-bfa5-2385632a5d7a","LastUpdated":"2015-02-24T08:42:33.92","URI":"http://www.playmapping.com/DBStore/Documents/08b5dd68-8b5f-441c-b89e-dbc0ff95aee2/Onderhoudsplan Pijnacker Nootdorp.docx","Description":"Onderhoudsplan speelplek Bibliotheek Oostlan"}]},{"$id":"11","ID":"ef70bb08-793b-42c6-b73f-2ad9985e7366","LastUpdated":"2015-09-18T23:02:45.25","Name":"01.01.03 Dr. W. van der Horstlaan 38","AddressLine1":"Dokter W. van der Horstlaan 38","Suburb":"Pijnacker-Centrum / Dorp","City":"Pijnacker","Area":"","PostCode":"2641 RW","Ref":"","AssetCount":4,"Lat":"52,01705","Lng":"4,42544","ChildLocations":[],"Images":[{"$id":"12","ID":"384c0008-f646-4ab2-8c89-fdae3bc105b8","LastUpdated":"2014-09-22T10:40:13.733","URI":"http://www.playmapping.com/GetImage.ashx?g=384c0008-f646-4ab2-8c89-fdae3bc105b8&w=350&h=350","Description":""}],"Documents":[]},{"$id":"13","ID":"d73f6413-de6b-485b-96fa-a9615181db26","LastUpdated":"2015-09-18T23:02:44.927","Name":"01.01.04 Hoflandstraat 1 (park)","AddressLine1":"Hoflandstraat 1","Suburb":"Pijnacker-Centrum / Dorp","City":"Pijnacker","Area":"","PostCode":"2641 JJ","Ref":"","AssetCount":4,"Lat":"52,01363","Lng":"4,435199","ChildLocations":[],"Images":[{"$id":"14","ID":"1b1b875f-29d6-4671-8d57-05e0ceaed1b6","LastUpdated":"2011-03-15T09:08:21","URI":"http://www.playmapping.com/GetImage.ashx?g=1b1b875f-29d6-4671-8d57-05e0ceaed1b6&w=350&h=350","Description":""},{"$id":"15","ID":"e042ba0b-dc91-4c10-b6d2-2527662e0b4d","LastUpdated":"2010-07-06T18:52:09.85","URI":"http://www.playmapping.com/GetImage.ashx?g=e042ba0b-dc91-4c10-b6d2-2527662e0b4d&w=350&h=350","Description":""}],"Documents":[]},{"$id":"16","ID":"c17c5a8e-c793-46fa-b882-d334feb78f6e","LastUpdated":"2015-09-18T23:02:44.653","Name":"01.01.05 Prins Hendrikstraat 14","AddressLine1":"Prins Hendrikstraat 14","Suburb":"Pijnacker-Centrum / Dorp","City":"Pijnacker","Area":"","PostCode":"2641 HJ","Ref":"","AssetCount":10,"Lat":"52,01692","Lng":"4,433616","ChildLocations":[],"Images":[{"$id":"17","ID":"eda67924-fe9a-4775-b925-30f9965e36a8","LastUpdated":"2010-07-06T18:52:12.577","URI":"http://www.playmapping.com/GetImage.ashx?g=eda67924-fe9a-4775-b925-30f9965e36a8&w=350&h=350","Description":""},{"$id":"18","ID":"04cd711a-c987-4acd-ba64-99072c64824e","LastUpdated":"2015-12-29T15:24:59.237","URI":"http://www.playmapping.com/GetImage.ashx?g=04cd711a-c987-4acd-ba64-99072c64824e&w=350&h=350","Description":""},{"$id":"19","ID":"dbe95a36-1d28-4522-bc67-c61d892503e4","LastUpdated":"2016-08-15T15:24:39.027","URI":"http://www.playmapping.com/GetImage.ashx?g=dbe95a36-1d28-4522-bc67-c61d892503e4&w=350&h=350","Description":""}],"Documents":[]},{"$id":"20","ID":"78a158c5-006d-45b7-95f5-6fb1de201e73","LastUpdated":"2015-09-18T23:02:43.82","Name":"01.01.06 Charlotte de Bourbonstraat 117 trapveld","AddressLine1":"Charlotte de Bourbonstraat 117","Suburb":"Pijnacker-Centrum / Dorp","City":"Pijnacker","Area":"","PostCode":"2641 EX","Ref":"","AssetCount":4,"Lat":"52,0162","Lng":"4,438553","ChildLocations":[],"Images":[{"$id":"21","ID":"e9025364-e5b4-45dc-91eb-8a2d73af9b2d","LastUpdated":"2016-08-15T15:39:11.98","URI":"http://www.playmapping.com/GetImage.ashx?g=e9025364-e5b4-45dc-91eb-8a2d73af9b2d&w=350&h=350","Description":""},{"$id":"22","ID":"86e951ad-146d-4458-84e9-8cb7468f9d8f","LastUpdated":"2013-04-17T07:59:06.24","URI":"http://www.playmapping.com/GetImage.ashx?g=86e951ad-146d-4458-84e9-8cb7468f9d8f&w=350&h=350","Description":""},{"$id":"23","ID":"aeeb2d0f-1716-42ae-b71c-9ee2b2b179e9","LastUpdated":"2016-03-22T07:40:08.677","URI":"http://www.playmapping.com/GetImage.ashx?g=aeeb2d0f-1716-42ae-b71c-9ee2b2b179e9&w=350&h=350","Description":""}],"Documents":[]},{"$id":"24","ID":"c5cf0fba-9503-4168-ab25-7d7e88e981b5","LastUpdated":"2015-09-18T23:02:44.7","Name":"01.01.07 Anna van Burenstraat 24","AddressLine1":"Anna van Burenstraat 24","Suburb":"Pijnacker-Centrum / Dorp","City":"Pijnacker","Area":"","PostCode":"2641 ET","Ref":"","AssetCount":8,"Lat":"52,01634","Lng":"4,436927","ChildLocations":[],"Images":[{"$id":"25","ID":"547f92bc-3819-444d-8db6-eb44fb16dd2f","LastUpdated":"2010-07-06T18:52:40.72","URI":"http://www.playmapping.com/GetImage.ashx?g=547f92bc-3819-444d-8db6-eb44fb16dd2f&w=350&h=350","Description":""}],"Documents":[]},{"$id":"26","ID":"e5f1a540-8f9f-49db-a750-bc912bba74ae","LastUpdated":"2015-09-18T23:02:45.043","Name":"01.01.08 Anna van Saksenstraat 19","AddressLine1":"Anna van Saksenstraat 19","Suburb":"Pijnacker-Centrum / Dorp","City":"Pijnacker","Area":"","PostCode":"2641 ER","Ref":"","AssetCount":6,"Lat":"52,01539","Lng":"4,438431","ChildLocations":[],"Images":[{"$id":"27","ID":"7221f5e2-d977-4183-bc9f-d15d7d129165","LastUpdated":"2010-07-06T18:52:36.973","URI":"http://www.playmapping.com/GetImage.ashx?g=7221f5e2-d977-4183-bc9f-d15d7d129165&w=350&h=350","Description":""}],"Documents":[]},{"$id":"28","ID":"bdef18dd-2255-4cd2-a330-a953612e233c","LastUpdated":"2015-09-18T23:02:44.597","Name":"01.01.09 Mandenmeesterstraat 26","AddressLine1":"Mandenmeesterstraat 26","Suburb":"Pijnacker-Centrum / Dorp","City":"Pijnacker","Area":"","PostCode":"2641 JX","Ref":"","AssetCount":6,"Lat":"52,01766","Lng":"4,43601","ChildLocations":[],"Images":[{"$id":"29","ID":"18f07de7-18a5-4ec5-b2a7-1b31d044cea0","LastUpdated":"2010-07-06T18:52:06.453","URI":"http://www.playmapping.com/GetImage.ashx?g=18f07de7-18a5-4ec5-b2a7-1b31d044cea0&w=350&h=350","Description":""},{"$id":"30","ID":"8ba8e94d-3d3a-4536-9af3-5763a3403580","LastUpdated":"2015-12-29T15:27:23.38","URI":"http://www.playmapping.com/GetImage.ashx?g=8ba8e94d-3d3a-4536-9af3-5763a3403580&w=350&h=350","Description":""}],"Documents":[]},{"$id":"31","ID":"433c47d8-988c-4929-b9be-47308bf08651","LastUpdated":"2015-09-18T23:02:43.137","Name":"01.01.10 Keurmeesterstraat 19","AddressLine1":"Keurmeesterstraat 19","Suburb":"Pijnacker-Centrum / Dorp","City":"Pijnacker","Area":"","PostCode":"2641 JW","Ref":"","AssetCount":8,"Lat":"52,01801","Lng":"4,437508","ChildLocations":[],"Images":[{"$id":"32","ID":"e9aa5d5b-5af3-40d1-9000-2b2b08ccadd0","LastUpdated":"2015-04-22T08:15:22.92","URI":"http://www.playmapping.com/GetImage.ashx?g=e9aa5d5b-5af3-40d1-9000-2b2b08ccadd0&w=350&h=350","Description":""},{"$id":"33","ID":"bfd5d6dd-0cb2-4c10-a755-c34beac58645","LastUpdated":"2010-07-06T18:52:35.473","URI":"http://www.playmapping.com/GetImage.ashx?g=bfd5d6dd-0cb2-4c10-a755-c34beac58645&w=350&h=350","Description":""}],"Documents":[]},{"$id":"34","ID":"565414d0-fd91-42a9-a18d-d3934a902bc2","LastUpdated":"2015-09-18T23:02:43.403","Name":"01.01.11 Emmapark 18","AddressLine1":"Emmapark 18","Suburb":"Pijnacker-Centrum / Dorp","City":"Pijnacker","Area":"","PostCode":"2641 EL","Ref":"","AssetCount":10,"Lat":"52,01954","Lng":"4,435317","ChildLocations":[],"Images":[{"$id":"35","ID":"ea050bb6-d260-4d78-a0e1-b79e48f95150","LastUpdated":"2016-05-12T12:18:06.97","URI":"http://www.playmapping.com/GetImage.ashx?g=ea050bb6-d260-4d78-a0e1-b79e48f95150&w=350&h=350","Description":""},{"$id":"36","ID":"47f8645b-620c-4d51-8fe0-fe735f63eaa3","LastUpdated":"2010-07-06T18:52:43.263","URI":"http://www.playmapping.com/GetImage.ashx?g=47f8645b-620c-4d51-8fe0-fe735f63eaa3&w=350&h=350","Description":""}],"Documents":[]},{"$id":"37","ID":"575bccdb-12a0-41f5-a3f9-3cfa3a918fd0","LastUpdated":"2015-09-18T23:02:43.417","Name":"01.01.12 Koningshof 13","AddressLine1":"Koningshof 13","Suburb":"Pijnacker-Centrum / Dorp","City":"Pijnacker","Area":"","PostCode":"2641 GT","Ref":"","AssetCount":12,"Lat":"52,01257","Lng":"4,433788","ChildLocations":[],"Images":[{"$id":"38","ID":"b591d05c-dd85-4254-bda9-00463249dd07","LastUpdated":"2010-07-06T18:52:00.32","URI":"http://www.playmapping.com/GetImage.ashx?g=b591d05c-dd85-4254-bda9-00463249dd07&w=350&h=350","Description":""}],"Documents":[]}],"Images":[],"Documents":[]},{"$id":"39","ID":"1302795a-f71d-4dee-90a9-fe6784b3d49e","LastUpdated":"2015-09-18T23:02:42.54","Name":"02 Pijnacker Noord","AddressLine1":"","Suburb":"","City":"","Area":"","PostCode":"","Ref":"","AssetCount":0,"Lat":"0","Lng":"0","ChildLocations":[{"$id":"40","ID":"af295013-eb26-46b1-b8fc-3a68458f32db","LastUpdated":"2017-02-05T12:04:15.137","Name":"01.02.01 Schaepmanlaan 1","AddressLine1":"Schaepmanlaan 1","Suburb":"Pijnacker-Noord","City":"Pijnacker","Area":"","PostCode":"2641 WJ","Ref":"","AssetCount":14,"Lat":"52,02643","Lng":"4,427426","ChildLocations":[],"Images":[{"$id":"41","ID":"112ac583-28c5-460e-9ee7-2728c1bb9ed0","LastUpdated":"2015-06-12T14:50:57.213","URI":"http://www.playmapping.com/GetImage.ashx?g=112ac583-28c5-460e-9ee7-2728c1bb9ed0&w=350&h=350","Description":""},{"$id":"42","ID":"42ed8daf-a7b3-4ed1-a906-2922a50eb594","LastUpdated":"2016-04-19T13:11:02.85","URI":"http://www.playmapping.com/GetImage.ashx?g=42ed8daf-a7b3-4ed1-a906-2922a50eb594&w=350&h=350","Description":""}],"Documents":[]},{"$id":"43","ID":"af4cd175-36c6-41b6-b0d4-1c307cf05ce9","LastUpdated":"2015-09-18T23:02:44.42","Name":"01.02.02 Goudenregensingel 30","AddressLine1":"Goudenregensingel 30","Suburb":"Pijnacker-Noord","City":"Pijnacker","Area":"","PostCode":"2641 DA","Ref":"","AssetCount":10,"Lat":"52,02292","Lng":"4,434587","ChildLocations":[],"Images":[{"$id":"44","ID":"d325ec44-72ae-4a85-9a79-26f674f73999","LastUpdated":"2017-04-12T08:37:07.967","URI":"http://www.playmapping.com/GetImage.ashx?g=d325ec44-72ae-4a85-9a79-26f674f73999&w=350&h=350","Description":""},{"$id":"45","ID":"e0913676-8da7-4477-971c-a333d587fb03","LastUpdated":"2015-08-10T09:43:41.503","URI":"http://www.playmapping.com/GetImage.ashx?g=e0913676-8da7-4477-971c-a333d587fb03&w=350&h=350","Description":""}],"Documents":[]},{"$id":"46","ID":"4414c418-31fd-4ac1-9ea4-3f18faade58a","LastUpdated":"2015-09-18T23:02:43.163","Name":"01.02.06 Colijnlaan 13","AddressLine1":"Colijnlaan 13","Suburb":"Pijnacker-Noord","City":"Pijnacker","Area":"","PostCode":"2641 TM","Ref":"","AssetCount":6,"Lat":"52,0266","Lng":"4,430049","ChildLocations":[],"Images":[{"$id":"47","ID":"a997bd73-eb48-48a9-8808-c4631216a3be","LastUpdated":"2014-04-23T07:25:42.117","URI":"http://www.playmapping.com/GetImage.ashx?g=a997bd73-eb48-48a9-8808-c4631216a3be&w=350&h=350","Description":""},{"$id":"48","ID":"a1daec30-75c1-4cd9-846c-cb15c0105e4f","LastUpdated":"2010-07-06T18:52:36.04","URI":"http://www.playmapping.com/GetImage.ashx?g=a1daec30-75c1-4cd9-846c-cb15c0105e4f&w=350&h=350","Description":""}],"Documents":[]},{"$id":"49","ID":"16cbaf28-7ba1-449b-ba86-1a15d38877c2","LastUpdated":"2015-09-18T23:02:42.613","Name":"01.02.07 Schoutenlaan 10","AddressLine1":"Schoutenlaan 10","Suburb":"Pijnacker-Noord","City":"Pijnacker","Area":"","PostCode":"2641 TC","Ref":"","AssetCount":15,"Lat":"52,02967","Lng":"4,425854","ChildLocations":[],"Images":[{"$id":"50","ID":"bf602ca8-b8be-4507-bfe9-3d1eb2056ce7","LastUpdated":"2016-01-28T12:59:24.177","URI":"http://www.playmapping.com/GetImage.ashx?g=bf602ca8-b8be-4507-bfe9-3d1eb2056ce7&w=350&h=350","Description":""},{"$id":"51","ID":"6df139da-97bd-4c12-ba00-8e805640a17f","LastUpdated":"2010-07-06T18:52:27.76","URI":"http://www.playmapping.com/GetImage.ashx?g=6df139da-97bd-4c12-ba00-8e805640a17f&w=350&h=350","Description":""},{"$id":"52","ID":"487e821d-97f5-4bc3-be1c-9324b14be45f","LastUpdated":"2011-03-15T07:49:34","URI":"http://www.playmapping.com/GetImage.ashx?g=487e821d-97f5-4bc3-be1c-9324b14be45f&w=350&h=350","Description":""},{"$id":"53","ID":"e4106d16-6408-4fda-be85-97a0aa3916b8","LastUpdated":"2014-04-23T06:16:50.14","URI":"http://www.playmapping.com/GetImage.ashx?g=e4106d16-6408-4fda-be85-97a0aa3916b8&w=350&h=350","Description":""},{"$id":"54","ID":"1f49739b-278e-403c-ac8c-a5f3278d4860","LastUpdated":"2014-04-23T06:17:34.897","URI":"http://www.playmapping.com/GetImage.ashx?g=1f49739b-278e-403c-ac8c-a5f3278d4860&w=350&h=350","Description":""}],"Documents":[]},{"$id":"55","ID":"527ff123-82c3-4c3d-a358-bd6428a00460","LastUpdated":"2017-02-05T12:12:06.013","Name":"01.02.08 KC Pepijn en Wombat Goudenregensingel 27","AddressLine1":"Goudenregensingel 27","Suburb":"Pijnacker-Noord","City":"Pijnacker","Area":"","PostCode":"2641 AV","Ref":"","AssetCount":22,"Lat":"52,02198","Lng":"4,431317","ChildLocations":[],"Images":[{"$id":"56","ID":"573f6e07-5f1e-4e7d-ac9d-886ac8074bf6","LastUpdated":"2010-07-06T18:52:26.923","URI":"http://www.playmapping.com/GetImage.ashx?g=573f6e07-5f1e-4e7d-ac9d-886ac8074bf6&w=350&h=350","Description":""},{"$id":"57","ID":"c9eb176e-8878-4953-b745-942299d8391e","LastUpdated":"2017-04-12T08:57:28.717","URI":"http://www.playmapping.com/GetImage.ashx?g=c9eb176e-8878-4953-b745-942299d8391e&w=350&h=350","Description":""}],"Documents":[]},{"$id":"58","ID":"bfee8a89-518b-4865-bc28-02242d85481c","LastUpdated":"2015-09-18T23:02:44.623","Name":"01.02.09 De Visserlaan 7","AddressLine1":"De Visserlaan 7","Suburb":"Pijnacker-Noord","City":"Pijnacker","Area":"","PostCode":"2641 VL","Ref":"","AssetCount":4,"Lat":"52,02786","Lng":"4,422082","ChildLocations":[],"Images":[{"$id":"59","ID":"2b972c98-3f7d-4c6d-bf55-45d12880a12e","LastUpdated":"2013-09-10T14:02:23.137","URI":"http://www.playmapping.com/GetImage.ashx?g=2b972c98-3f7d-4c6d-bf55-45d12880a12e&w=350&h=350","Description":""},{"$id":"60","ID":"e56e5701-ba3e-4032-9f2e-78afd5348c29","LastUpdated":"2010-07-06T18:52:24.48","URI":"http://www.playmapping.com/GetImage.ashx?g=e56e5701-ba3e-4032-9f2e-78afd5348c29&w=350&h=350","Description":""},{"$id":"61","ID":"4971b42e-58a0-41ec-be92-9d8597686fca","LastUpdated":"2016-01-28T13:03:08.387","URI":"http://www.playmapping.com/GetImage.ashx?g=4971b42e-58a0-41ec-be92-9d8597686fca&w=350&h=350","Description":""}],"Documents":[]},{"$id":"62","ID":"1c372108-9baa-48e2-b69c-50f20ed46d4d","LastUpdated":"2015-09-18T23:02:42.73","Name":"01.02.10 Vogelkerslaan 7","AddressLine1":"Vogelkerslaan 7","Suburb":"Pijnacker-Noord","City":"Pijnacker","Area":"","PostCode":"2641 AE","Ref":"","AssetCount":6,"Lat":"52,02354","Lng":"4,428142","ChildLocations":[],"Images":[{"$id":"63","ID":"59084909-7963-49cc-9d38-560ee0890a54","LastUpdated":"2010-07-06T18:52:18.29","URI":"http://www.playmapping.com/GetImage.ashx?g=59084909-7963-49cc-9d38-560ee0890a54&w=350&h=350","Description":""}],"Documents":[]},{"$id":"64","ID":"52cb5d72-1350-4783-8053-3478e1430f52","LastUpdated":"2015-09-18T23:02:43.377","Name":"01.02.11 Wegendoornlaan 7","AddressLine1":"Wegendoornlaan 7","Suburb":"Pijnacker-Noord","City":"Pijnacker","Area":"","PostCode":"2641 AD","Ref":"","AssetCount":4,"Lat":"52,02363","Lng":"4,427455","ChildLocations":[],"Images":[{"$id":"65","ID":"701d87aa-4b9e-4f81-b9d8-56224028fa19","LastUpdated":"2010-07-06T18:52:18.34","URI":"http://www.playmapping.com/GetImage.ashx?g=701d87aa-4b9e-4f81-b9d8-56224028fa19&w=350&h=350","Description":""}],"Documents":[]},{"$id":"66","ID":"43fa3f35-69fc-4d48-aba0-eef6466e834f","LastUpdated":"2015-09-18T23:02:43.15","Name":"01.02.12 Vlierlaan 29","AddressLine1":"Vlierlaan 29","Suburb":"Pijnacker-Noord","City":"Pijnacker","Area":"","PostCode":"2641 AG","Ref":"","AssetCount":4,"Lat":"52,02332","Lng":"4,426302","ChildLocations":[],"Images":[{"$id":"67","ID":"614692c6-3936-4960-afd0-19589e6b789a","LastUpdated":"2015-06-12T13:48:58.63","URI":"http://www.playmapping.com/GetImage.ashx?g=614692c6-3936-4960-afd0-19589e6b789a&w=350&h=350","Description":""},{"$id":"68","ID":"ea394ae9-7457-4716-9b1e-1a02072002ad","LastUpdated":"2015-06-12T13:49:24.397","URI":"http://www.playmapping.com/GetImage.ashx?g=ea394ae9-7457-4716-9b1e-1a02072002ad&w=350&h=350","Description":""},{"$id":"69","ID":"d9bc38cd-5b8b-4a07-96e3-873d1cbc8d8a","LastUpdated":"2010-07-06T18:52:26.71","URI":"http://www.playmapping.com/GetImage.ashx?g=d9bc38cd-5b8b-4a07-96e3-873d1cbc8d8a&w=350&h=350","Description":""},{"$id":"70","ID":"be340b94-b23c-4470-8825-95876caf65d9","LastUpdated":"2015-06-12T14:24:39.493","URI":"http://www.playmapping.com/GetImage.ashx?g=be340b94-b23c-4470-8825-95876caf65d9&w=350&h=350","Description":""}],"Documents":[]},{"$id":"71","ID":"b56af020-6b26-4605-899b-6759a28ce6c4","LastUpdated":"2015-09-18T23:02:44.537","Name":"01.02.13 Pasteurlaan 17","AddressLine1":"Pasteurlaan 17","Suburb":"Pijnacker-Noord","City":"Pijnacker","Area":"","PostCode":"2641 ZL","Ref":"","AssetCount":19,"Lat":"52,02536","Lng":"4,425079","ChildLocations":[],"Images":[{"$id":"72","ID":"d4412f6d-398d-4d6b-8ac5-353ed58a2eb6","LastUpdated":"2016-01-28T13:14:32.033","URI":"http://www.playmapping.com/GetImage.ashx?g=d4412f6d-398d-4d6b-8ac5-353ed58a2eb6&w=350&h=350","Description":""},{"$id":"73","ID":"8d8ea6d0-f7d3-4e2d-bf02-7e71f361ddc3","LastUpdated":"2011-09-12T11:04:08","URI":"http://www.playmapping.com/GetImage.ashx?g=8d8ea6d0-f7d3-4e2d-bf02-7e71f361ddc3&w=350&h=350","Description":""},{"$id":"74","ID":"c8f4ead4-474f-41f9-a9eb-870340d3c4d6","LastUpdated":"2010-07-06T18:52:26.677","URI":"http://www.playmapping.com/GetImage.ashx?g=c8f4ead4-474f-41f9-a9eb-870340d3c4d6&w=350&h=350","Description":""}],"Documents":[]},{"$id":"75","ID":"e10ecf21-89b7-4c30-a1c1-8b11e39713e3","LastUpdated":"2015-09-18T23:02:44.99","Name":"01.02.14 Nobellaan 25","AddressLine1":"Nobellaan 25","Suburb":"Pijnacker-Noord","City":"Pijnacker","Area":"","PostCode":"2641 XT","Ref":"","AssetCount":2,"Lat":"52,02648","Lng":"4,425694","ChildLocations":[],"Images":[{"$id":"76","ID":"06d16759-f845-48d5-b1d1-0f0fe305001b","LastUpdated":"2016-03-29T08:38:09.053","URI":"http://www.playmapping.com/GetImage.ashx?g=06d16759-f845-48d5-b1d1-0f0fe305001b&w=350&h=350","Description":""},{"$id":"77","ID":"1776249f-f3a1-4112-bf27-4c4d4ca60830","LastUpdated":"2014-04-22T11:41:08.083","URI":"http://www.playmapping.com/GetImage.ashx?g=1776249f-f3a1-4112-bf27-4c4d4ca60830&w=350&h=350","Description":""},{"$id":"78","ID":"ca46e32b-e042-46cb-a5e5-85f0ee717565","LastUpdated":"2016-11-01T10:52:18.637","URI":"http://www.playmapping.com/GetImage.ashx?g=ca46e32b-e042-46cb-a5e5-85f0ee717565&w=350&h=350","Description":""},{"$id":"79","ID":"51907eca-b286-455a-8d69-f533ceb71ac8","LastUpdated":"2010-07-06T18:52:42.237","URI":"http://www.playmapping.com/GetImage.ashx?g=51907eca-b286-455a-8d69-f533ceb71ac8&w=350&h=350","Description":""}],"Documents":[]},{"$id":"80","ID":"00e500d1-53b9-49cb-a913-da5ab5067369","LastUpdated":"2017-02-05T12:05:07.497","Name":"01.02.15 Thorbeckelaan 7","AddressLine1":"Thorbeckelaan / van Houtenlaan","Suburb":"Pijnacker-Noord","City":"Pijnacker","Area":"","PostCode":"2641 XD","Ref":"","AssetCount":10,"Lat":"52,02668","Lng":"4,423057","ChildLocations":[],"Images":[{"$id":"81","ID":"8e3b75cd-7ad5-41e0-a90e-1fe786586103","LastUpdated":"2010-07-06T18:52:07.797","URI":"http://www.playmapping.com/GetImage.ashx?g=8e3b75cd-7ad5-41e0-a90e-1fe786586103&w=350&h=350","Description":""},{"$id":"82","ID":"d04ff56c-341a-4ef8-ad68-286e452fd551","LastUpdated":"2016-01-28T13:32:30.533","URI":"http://www.playmapping.com/GetImage.ashx?g=d04ff56c-341a-4ef8-ad68-286e452fd551&w=350&h=350","Description":""},{"$id":"83","ID":"5059d3c2-321f-49ad-abd7-51aeadf0be89","LastUpdated":"2013-09-10T13:49:21.95","URI":"http://www.playmapping.com/GetImage.ashx?g=5059d3c2-321f-49ad-abd7-51aeadf0be89&w=350&h=350","Description":""},{"$id":"84","ID":"545f6fe9-c0f8-4328-84cb-756b3e99270b","LastUpdated":"2013-04-10T08:28:11.4","URI":"http://www.playmapping.com/GetImage.ashx?g=545f6fe9-c0f8-4328-84cb-756b3e99270b&w=350&h=350","Description":""}],"Documents":[]},{"$id":"85","ID":"803fca3f-7b23-43c5-b219-1880007151b2","LastUpdated":"2015-09-18T23:02:43.903","Name":"01.02.16 Nobellaan 15","AddressLine1":"Nobellaan 15","Suburb":"Pijnacker-Noord","City":"Pijnacker","Area":"","PostCode":"2641 XP","Ref":"","AssetCount":4,"Lat":"52,02589","Lng":"4,426772","ChildLocations":[],"Images":[{"$id":"86","ID":"fd438f12-2134-430b-b728-747820e57612","LastUpdated":"2015-08-03T12:35:04.09","URI":"http://www.playmapping.com/GetImage.ashx?g=fd438f12-2134-430b-b728-747820e57612&w=350&h=350","Description":""}],"Documents":[]},{"$id":"87","ID":"aea6ee5a-24d6-4ca5-9d19-a0acf0c0b2d9","LastUpdated":"2015-09-18T23:02:44.39","Name":"01.02.17 Cort van der Lindenlaan 1","AddressLine1":"Cort van der Lindenlaan 1","Suburb":"Pijnacker-Noord","City":"Pijnacker","Area":"","PostCode":"2641 XM","Ref":"","AssetCount":4,"Lat":"52,02729","Lng":"4,425071","ChildLocations":[],"Images":[{"$id":"88","ID":"98814d51-7154-40c3-8d05-8ad1316cfd54","LastUpdated":"2015-09-07T12:40:22.803","URI":"http://www.playmapping.com/GetImage.ashx?g=98814d51-7154-40c3-8d05-8ad1316cfd54&w=350&h=350","Description":""}],"Documents":[]},{"$id":"89","ID":"606e6afc-f6b3-4566-a86d-899f9dbb436e","LastUpdated":"2017-02-05T12:05:20.58","Name":"01.02.18 De Savornin Lohmanlaan 33","AddressLine1":"De Savornin Lohmanlaan 33","Suburb":"Pijnacker-Noord","City":"Pijnacker","Area":"","PostCode":"2641 WP","Ref":"","AssetCount":2,"Lat":"52,02576","Lng":"4,428103","ChildLocations":[],"Images":[{"$id":"90","ID":"bad3981e-d250-4143-8096-ea347c6ffb4e","LastUpdated":"2016-09-15T11:55:43.353","URI":"http://www.playmapping.com/GetImage.ashx?g=bad3981e-d250-4143-8096-ea347c6ffb4e&w=350&h=350","Description":""}],"Documents":[]}],"Images":[],"Documents":[]},{"$id":"91","ID":"c7a296ec-3afd-4930-ae80-6faa49b94906","LastUpdated":"2015-09-18T23:02:44.753","Name":"03 Koningshof","AddressLine1":"","Suburb":"","City":"","Area":"","PostCode":"","Ref":"","AssetCount":0,"Lat":"0","Lng":"0","ChildLocations":[{"$id":"92","ID":"d1676cd6-ed57-4698-b650-663cae546668","LastUpdated":"2017-02-05T12:02:28.243","Name":"01.03.01 Binkhorst 13","AddressLine1":"Binkhorst 13","Suburb":"Koningshof","City":"Pijnacker","Area":"","PostCode":"2641 LD","Ref":"","AssetCount":4,"Lat":"52,01185","Lng":"4,437318","ChildLocations":[],"Images":[{"$id":"93","ID":"05e9e0f5-7b5b-4a79-9504-99f0eaaa30b9","LastUpdated":"2011-03-15T11:51:15","URI":"http://www.playmapping.com/GetImage.ashx?g=05e9e0f5-7b5b-4a79-9504-99f0eaaa30b9&w=350&h=350","Description":""}],"Documents":[]},{"$id":"94","ID":"9ceb0d6b-63cf-44c7-ae80-8005f0fff017","LastUpdated":"2017-02-05T12:02:37.75","Name":"01.03.02 Het Baken 2","AddressLine1":"Het Baken 2","Suburb":"Koningshof","City":"Pijnacker","Area":"","PostCode":"2641 JN","Ref":"","AssetCount":4,"Lat":"52,01204","Lng":"4,436224","ChildLocations":[],"Images":[{"$id":"95","ID":"6384f549-1252-4399-9199-cb98484c1347","LastUpdated":"2011-09-13T10:57:37","URI":"http://www.playmapping.com/GetImage.ashx?g=6384f549-1252-4399-9199-cb98484c1347&w=350&h=350","Description":""},{"$id":"96","ID":"93f28fc3-342c-4209-9b6b-e8808f435f09","LastUpdated":"2016-03-22T09:41:41.337","URI":"http://www.playmapping.com/GetImage.ashx?g=93f28fc3-342c-4209-9b6b-e8808f435f09&w=350&h=350","Description":""}],"Documents":[]},{"$id":"97","ID":"071de75b-de58-4283-a71f-c219f5bb078b","LastUpdated":"2017-02-05T12:02:47.627","Name":"01.03.03 Eikenduinen 3","AddressLine1":"Eikenduinen 3","Suburb":"Koningshof","City":"Pijnacker","Area":"","PostCode":"2641 LJ","Ref":"","AssetCount":6,"Lat":"52,01134","Lng":"4,439923","ChildLocations":[],"Images":[{"$id":"98","ID":"a897fd32-9c3e-4f9b-9520-ce0fb77c60af","LastUpdated":"2010-07-06T18:52:36.437","URI":"http://www.playmapping.com/GetImage.ashx?g=a897fd32-9c3e-4f9b-9520-ce0fb77c60af&w=350&h=350","Description":""}],"Documents":[]},{"$id":"99","ID":"cd6ad991-6995-4394-9065-115ef6acdee4","LastUpdated":"2017-02-05T12:02:56.093","Name":"01.03.04 Hofzicht 12","AddressLine1":"Hofzicht 12","Suburb":"Koningshof","City":"Pijnacker","Area":"","PostCode":"2641 LT","Ref":"","AssetCount":7,"Lat":"52,01045","Lng":"4,439494","ChildLocations":[],"Images":[{"$id":"100","ID":"e70fbbc3-308d-4175-9c06-38223314dfad","LastUpdated":"2017-05-05T17:47:34.323","URI":"http://www.playmapping.com/GetImage.ashx?g=e70fbbc3-308d-4175-9c06-38223314dfad&w=350&h=350","Description":""},{"$id":"101","ID":"d84bcd09-4214-4b90-8682-a8e3710b35a1","LastUpdated":"2010-07-06T18:52:32.447","URI":"http://www.playmapping.com/GetImage.ashx?g=d84bcd09-4214-4b90-8682-a8e3710b35a1&w=350&h=350","Description":""}],"Documents":[]},{"$id":"102","ID":"3b0ea4ff-952a-44c0-ac5a-6f31f93b777f","LastUpdated":"2017-02-05T12:03:05.567","Name":"01.03.05 Trapveld achter Duivestein 29","AddressLine1":"Trapveld achter Duivestein 29","Suburb":"Koningshof","City":"Pijnacker","Area":"","PostCode":"2641 LG","Ref":"","AssetCount":4,"Lat":"52,01035","Lng":"4,438413","ChildLocations":[],"Images":[{"$id":"103","ID":"9a2c06cc-8be9-4085-9eb9-b39a08ce9dd0","LastUpdated":"2010-07-06T18:52:33.96","URI":"http://www.playmapping.com/GetImage.ashx?g=9a2c06cc-8be9-4085-9eb9-b39a08ce9dd0&w=350&h=350","Description":""}],"Documents":[]},{"$id":"104","ID":"b8b36d62-c5f9-49cc-b523-10b1aeb6efb4","LastUpdated":"2017-02-05T12:03:15.78","Name":"01.03.06 Kraaienburg 1","AddressLine1":"Kraaienburg 1","Suburb":"Koningshof","City":"Pijnacker","Area":"","PostCode":"2641 MB","Ref":"","AssetCount":6,"Lat":"52,01132","Lng":"4,442372","ChildLocations":[],"Images":[{"$id":"105","ID":"3e4f8746-afde-4a05-9fbf-cc39986a0aab","LastUpdated":"2010-07-06T18:52:36.123","URI":"http://www.playmapping.com/GetImage.ashx?g=3e4f8746-afde-4a05-9fbf-cc39986a0aab&w=350&h=350","Description":""}],"Documents":[]},{"$id":"106","ID":"707087df-3687-42d3-b093-a7e2c0554d3b","LastUpdated":"2017-02-05T11:53:44.75","Name":"01.03.07 Regge 1","AddressLine1":"Regge 1 (achterzijde)","Suburb":"Koningshof","City":"Pijnacker","Area":"","PostCode":"2641 SR","Ref":"","AssetCount":6,"Lat":"52,00859","Lng":"4,438031","ChildLocations":[],"Images":[{"$id":"107","ID":"cbe44b1b-d327-44f3-aae4-44d29c922342","LastUpdated":"2012-04-24T11:05:25","URI":"http://www.playmapping.com/GetImage.ashx?g=cbe44b1b-d327-44f3-aae4-44d29c922342&w=350&h=350","Description":""},{"$id":"108","ID":"f40c4871-6c10-46b2-b2f8-df81ddcb835d","LastUpdated":"2010-07-06T18:52:39.08","URI":"http://www.playmapping.com/GetImage.ashx?g=f40c4871-6c10-46b2-b2f8-df81ddcb835d&w=350&h=350","Description":""}],"Documents":[]},{"$id":"109","ID":"77e3ab6a-e3ee-449b-9249-a4768e83554f","LastUpdated":"2017-02-05T11:54:03.92","Name":"01.03.08 Patijnenburg 6","AddressLine1":"Patijnenburg 6","Suburb":"Koningshof","City":"Pijnacker","Area":"","PostCode":"2641 MV","Ref":"","AssetCount":6,"Lat":"52,0092","Lng":"4,441521","ChildLocations":[],"Images":[{"$id":"110","ID":"2d21f52a-5230-47c0-8ac8-f0720ae6f3de","LastUpdated":"2010-07-06T18:52:41.35","URI":"http://www.playmapping.com/GetImage.ashx?g=2d21f52a-5230-47c0-8ac8-f0720ae6f3de&w=350&h=350","Description":""}],"Documents":[]},{"$id":"111","ID":"76ee4d9d-2bba-4a0d-8401-973487cace93","LastUpdated":"2015-11-17T14:41:36.637","Name":"01.03.09 Lozerlaan 31","AddressLine1":"Lozerlaan 31","Suburb":"Koningshof","City":"Pijnacker","Area":"","PostCode":"2641 MG","Ref":"","AssetCount":12,"Lat":"52,01086","Lng":"4,44283","ChildLocations":[],"Images":[{"$id":"112","ID":"bcff98e3-3923-46f3-8015-1cca551011e2","LastUpdated":"2010-07-06T18:52:07.157","URI":"http://www.playmapping.com/GetImage.ashx?g=bcff98e3-3923-46f3-8015-1cca551011e2&w=350&h=350","Description":""}],"Documents":[]},{"$id":"113","ID":"93993c2f-77a5-4a95-8a28-ed2aeb4fbaaa","LastUpdated":"2015-11-17T14:40:53.683","Name":"01.03.10 Kleinhof 22","AddressLine1":"Kleinhof 22","Suburb":"Koningshof","City":"Pijnacker","Area":"","PostCode":"2641 LZ","Ref":"","AssetCount":6,"Lat":"52,01103","Lng":"4,441691","ChildLocations":[],"Images":[{"$id":"114","ID":"2c463a77-33be-4040-8f17-dd3729d2b78d","LastUpdated":"2010-07-06T18:52:38.53","URI":"http://www.playmapping.com/GetImage.ashx?g=2c463a77-33be-4040-8f17-dd3729d2b78d&w=350&h=350","Description":""}],"Documents":[]},{"$id":"115","ID":"97955c21-737f-4a09-a86b-ab3ed7cdd149","LastUpdated":"2015-11-17T14:42:20.34","Name":"01.03.11 Geerbron 16","AddressLine1":"Geerbron 16","Suburb":"Koningshof","City":"Pijnacker","Area":"","PostCode":"2641 LL","Ref":"","AssetCount":4,"Lat":"52,01188","Lng":"4,440027","ChildLocations":[],"Images":[{"$id":"116","ID":"ab7e9593-9762-420f-bca3-4cbef455be7f","LastUpdated":"2010-07-06T18:52:16.693","URI":"http://www.playmapping.com/GetImage.ashx?g=ab7e9593-9762-420f-bca3-4cbef455be7f&w=350&h=350","Description":""}],"Documents":[]},{"$id":"117","ID":"86cbde56-81cd-4268-afef-e58783af9cf1","LastUpdated":"2015-11-17T14:42:58.95","Name":"01.03.12 Volkerak 26","AddressLine1":"Volkerak 26","Suburb":"Koningshof","City":"Pijnacker","Area":"","PostCode":"2641 SW","Ref":"","AssetCount":4,"Lat":"52,00961","Lng":"4,439242","ChildLocations":[],"Images":[{"$id":"118","ID":"e5cdbbb6-813c-4ec4-87a0-2bddec5a517e","LastUpdated":"2016-03-24T11:37:01.843","URI":"http://www.playmapping.com/GetImage.ashx?g=e5cdbbb6-813c-4ec4-87a0-2bddec5a517e&w=350&h=350","Description":""},{"$id":"119","ID":"64c44e44-bcc6-4b83-84b9-a66106ce4e70","LastUpdated":"2010-07-06T18:52:31.997","URI":"http://www.playmapping.com/GetImage.ashx?g=64c44e44-bcc6-4b83-84b9-a66106ce4e70&w=350&h=350","Description":""},{"$id":"120","ID":"e4536afd-cf40-49b1-a6a8-e6145cb0855e","LastUpdated":"2012-04-24T10:37:49","URI":"http://www.playmapping.com/GetImage.ashx?g=e4536afd-cf40-49b1-a6a8-e6145cb0855e&w=350&h=350","Description":""}],"Documents":[]},{"$id":"121","ID":"fca4fbda-2b22-4c39-acef-f5fb752b2973","LastUpdated":"2017-02-05T12:02:02.257","Name":"01.03.13 Zaan 11","AddressLine1":"Zaan 11","Suburb":"Koningshof","City":"Pijnacker","Area":"","PostCode":"2641 SX","Ref":"","AssetCount":4,"Lat":"52,00811","Lng":"4,440126","ChildLocations":[],"Images":[{"$id":"122","ID":"cbd67a62-be57-4226-964e-72432cb200b7","LastUpdated":"2010-07-06T18:52:23.46","URI":"http://www.playmapping.com/GetImage.ashx?g=cbd67a62-be57-4226-964e-72432cb200b7&w=350&h=350","Description":""}],"Documents":[]},{"$id":"123","ID":"a6e1b2f6-3715-4438-aa76-b88fba22120a","LastUpdated":"2015-11-17T14:44:03.34","Name":"01.03.14 Peizerdiep/Rivierenlaan 87 (achter de huizen)","AddressLine1":"Rivierenlaan 87","Suburb":"Koningshof","City":"Pijnacker","Area":"","PostCode":"2641 VZ","Ref":"","AssetCount":8,"Lat":"52,00842","Lng":"4,437144","ChildLocations":[],"Images":[{"$id":"124","ID":"63702725-9291-4f8c-bd05-0080e229b1fe","LastUpdated":"2015-01-23T12:49:33.423","URI":"http://www.playmapping.com/GetImage.ashx?g=63702725-9291-4f8c-bd05-0080e229b1fe&w=350&h=350","Description":""},{"$id":"125","ID":"fd3d087d-d327-4378-a8c7-e60e6418fe66","LastUpdated":"2015-12-04T10:20:52.063","URI":"http://www.playmapping.com/GetImage.ashx?g=fd3d087d-d327-4378-a8c7-e60e6418fe66&w=350&h=350","Description":""}],"Documents":[]},{"$id":"126","ID":"e620c274-aea1-4939-8903-b56631004935","LastUpdated":"2017-03-30T09:10:48.373","Name":"01.03.15 Nederrijn 7","AddressLine1":"Nederrijn 7","Suburb":"Koningshof","City":"Pijnacker","Area":"","PostCode":"2641 TT","Ref":"","AssetCount":2,"Lat":"52,00714","Lng":"4,436416","ChildLocations":[],"Images":[{"$id":"127","ID":"7b408270-ca22-4594-aa2a-a7e895e715bf","LastUpdated":"2017-03-30T09:11:39.023","URI":"http://www.playmapping.com/GetImage.ashx?g=7b408270-ca22-4594-aa2a-a7e895e715bf&w=350&h=350","Description":""}],"Documents":[]},{"$id":"128","ID":"e6d72305-cbc0-48ca-9679-17671057d9ab","LastUpdated":"2015-11-17T14:46:00.917","Name":"01.03.16 Grevelingen 5","AddressLine1":"Grevelingen 5","Suburb":"Koningshof","City":"Pijnacker","Area":"","PostCode":"2641 XX","Ref":"","AssetCount":8,"Lat":"52,00919","Lng":"4,434668","ChildLocations":[],"Images":[{"$id":"129","ID":"3cbc488e-ff33-4d0d-a114-5ff5225a2a8e","LastUpdated":"2016-09-19T07:42:13.637","URI":"http://www.playmapping.com/GetImage.ashx?g=3cbc488e-ff33-4d0d-a114-5ff5225a2a8e&w=350&h=350","Description":""},{"$id":"130","ID":"972ae5e7-afb7-44e7-92dd-762641ea1ef4","LastUpdated":"2010-07-06T18:52:23.92","URI":"http://www.playmapping.com/GetImage.ashx?g=972ae5e7-afb7-44e7-92dd-762641ea1ef4&w=350&h=350","Description":""}],"Documents":[]},{"$id":"131","ID":"d6d6f6f1-8997-400b-8a38-94a1b6065436","LastUpdated":"2015-11-17T14:46:23.91","Name":"01.03.17 Eem 8","AddressLine1":"Eem 8","Suburb":"Koningshof","City":"Pijnacker","Area":"","PostCode":"2641 VS","Ref":"","AssetCount":6,"Lat":"52,00971","Lng":"4,435562","ChildLocations":[],"Images":[{"$id":"132","ID":"532fb93b-c4b7-487a-8205-826fb30671d6","LastUpdated":"2017-04-13T09:47:14.013","URI":"http://www.playmapping.com/GetImage.ashx?g=532fb93b-c4b7-487a-8205-826fb30671d6&w=350&h=350","Description":""},{"$id":"133","ID":"73355eca-d700-42f4-8f31-915a4986592d","LastUpdated":"2010-07-06T18:52:28.153","URI":"http://www.playmapping.com/GetImage.ashx?g=73355eca-d700-42f4-8f31-915a4986592d&w=350&h=350","Description":""}],"Documents":[]},{"$id":"134","ID":"363e9b86-573d-43dc-acf3-629ddf458fd7","LastUpdated":"2015-09-18T23:02:42.98","Name":"01.03.18 Zuiderstraat 24","AddressLine1":"Zuiderstraat 24","Suburb":"Koningshof","City":"Pijnacker","Area":"","PostCode":"2641 GW","Ref":"","AssetCount":8,"Lat":"52,01128","Lng":"4,4333","ChildLocations":[],"Images":[{"$id":"135","ID":"5a558aa1-905b-445b-a06a-14d956b43d87","LastUpdated":"2014-04-24T08:15:02.037","URI":"http://www.playmapping.com/GetImage.ashx?g=5a558aa1-905b-445b-a06a-14d956b43d87&w=350&h=350","Description":""},{"$id":"136","ID":"f1ea193e-4bd1-4e67-a48e-eda9e576f464","LastUpdated":"2010-07-06T18:52:40.937","URI":"http://www.playmapping.com/GetImage.ashx?g=f1ea193e-4bd1-4e67-a48e-eda9e576f464&w=350&h=350","Description":""}],"Documents":[{"$id":"137","ID":"e39a75ec-1e9c-4732-8a91-943713517909","LastUpdated":"2015-07-08T13:40:39.033","URI":"http://www.playmapping.com/DBStore/Documents/08b5dd68-8b5f-441c-b89e-dbc0ff95aee2/Communicatie Zuiderstraat.pdf","Description":"Communicatie Zuiderstraat"}]}],"Images":[],"Documents":[]},{"$id":"138","ID":"72823702-5837-424f-884a-2f0739a788b9","LastUpdated":"2015-09-18T23:02:43.717","Name":"04 Klapwijk","AddressLine1":"","Suburb":"","City":"","Area":"","PostCode":"","Ref":"","AssetCount":0,"Lat":"0","Lng":"0","ChildLocations":[{"$id":"139","ID":"f878c07a-5e68-41bc-ae88-19a1cbaa9f8c","LastUpdated":"2015-09-18T23:02:45.36","Name":"01.04.01 Skatepark Klapwijkseweg/Vrouwenrecht","AddressLine1":"Vrouwenrecht / Klapwijkseweg","Suburb":"Klapwijk","City":"Pijnacker","Area":"","PostCode":"2642 RA","Ref":"","AssetCount":12,"Lat":"52,01325","Lng":"4,442822","ChildLocations":[],"Images":[{"$id":"140","ID":"9b14bab4-e2d2-4703-96ad-08c647ed44fd","LastUpdated":"2014-04-24T06:10:15.647","URI":"http://www.playmapping.com/GetImage.ashx?g=9b14bab4-e2d2-4703-96ad-08c647ed44fd&w=350&h=350","Description":""},{"$id":"141","ID":"9a9ccea2-bf3b-4c57-8d5e-7936db57a151","LastUpdated":"2010-07-06T18:52:24.667","URI":"http://www.playmapping.com/GetImage.ashx?g=9a9ccea2-bf3b-4c57-8d5e-7936db57a151&w=350&h=350","Description":""}],"Documents":[]},{"$id":"142","ID":"5b41d2e8-6275-46b8-907f-53265b9aa3cb","LastUpdated":"2015-09-18T23:02:43.477","Name":"01.04.02 Freule van Dorthsingel 63","AddressLine1":"Freule van Dorthsingel 63","Suburb":"Klapwijk","City":"Pijnacker","Area":"","PostCode":"2642 AX","Ref":"","AssetCount":19,"Lat":"52,01497","Lng":"4,44376","ChildLocations":[],"Images":[{"$id":"143","ID":"1553f750-0c34-4ca4-b75e-5fef2d9d745b","LastUpdated":"2016-10-05T16:37:33.263","URI":"http://www.playmapping.com/GetImage.ashx?g=1553f750-0c34-4ca4-b75e-5fef2d9d745b&w=350&h=350","Description":""},{"$id":"144","ID":"865d9dda-1033-4671-a68f-95c8fc5f6d90","LastUpdated":"2010-07-06T18:52:29.253","URI":"http://www.playmapping.com/GetImage.ashx?g=865d9dda-1033-4671-a68f-95c8fc5f6d90&w=350&h=350","Description":""}],"Documents":[]},{"$id":"145","ID":"5c581d63-a924-4945-b3c8-67e7d7a38a01","LastUpdated":"2015-09-18T23:02:43.527","Name":"01.04.03 Riek Kuipersingel trapveld","AddressLine1":"Riek Kuipersingel 32","Suburb":"Klapwijk","City":"Pijnacker","Area":"","PostCode":"2642 AX","Ref":"","AssetCount":8,"Lat":"52,01503","Lng":"4,441762","ChildLocations":[],"Images":[{"$id":"146","ID":"0c1c77fa-6579-4226-89f9-73d92d609cfa","LastUpdated":"2016-03-29T12:34:08.543","URI":"http://www.playmapping.com/GetImage.ashx?g=0c1c77fa-6579-4226-89f9-73d92d609cfa&w=350&h=350","Description":""},{"$id":"147","ID":"55504968-34ea-4a24-a79b-a581c6586959","LastUpdated":"2013-04-11T12:54:43.05","URI":"http://www.playmapping.com/GetImage.ashx?g=55504968-34ea-4a24-a79b-a581c6586959&w=350&h=350","Description":""}],"Documents":[]},{"$id":"148","ID":"e91c3eb7-5740-43c7-927c-2d731a147f45","LastUpdated":"2017-02-05T11:54:28.077","Name":"01.04.04 Freule Wttewaall van Stoetwegensingel 36","AddressLine1":"Freule Wttewaall van Stoetwegensingel 36","Suburb":"Klapwijk","City":"Pijnacker","Area":"","PostCode":"2642 DC","Ref":"","AssetCount":18,"Lat":"52,01674","Lng":"4,44269","ChildLocations":[],"Images":[{"$id":"149","ID":"6447ca4e-2cd6-479f-a79d-2275ae3e7fd6","LastUpdated":"2016-09-19T09:44:42.64","URI":"http://www.playmapping.com/GetImage.ashx?g=6447ca4e-2cd6-479f-a79d-2275ae3e7fd6&w=350&h=350","Description":""},{"$id":"150","ID":"08165208-1f50-47f5-94ad-60e0756bcb2e","LastUpdated":"2010-07-06T18:52:20.157","URI":"http://www.playmapping.com/GetImage.ashx?g=08165208-1f50-47f5-94ad-60e0756bcb2e&w=350&h=350","Description":""}],"Documents":[]},{"$id":"151","ID":"070d0b33-b385-4e12-9495-28974876bd48","LastUpdated":"2015-09-18T23:02:42.41","Name":"01.04.05 Beppie Nooijstraat 23","AddressLine1":"Beppie Nooijstraat 23","Suburb":"Klapwijk","City":"Pijnacker","Area":"","PostCode":"2642 BR","Ref":"","AssetCount":10,"Lat":"52,01724","Lng":"4,447022","ChildLocations":[],"Images":[{"$id":"152","ID":"a540c40b-e6ec-4166-aa52-3ef9a56ab2f7","LastUpdated":"2010-07-06T18:52:14.557","URI":"http://www.playmapping.com/GetImage.ashx?g=a540c40b-e6ec-4166-aa52-3ef9a56ab2f7&w=350&h=350","Description":""},{"$id":"153","ID":"3bf59fba-528f-4b74-8151-5fe82bc56b7e","LastUpdated":"2017-02-05T12:23:07.21","URI":"http://www.playmapping.com/GetImage.ashx?g=3bf59fba-528f-4b74-8151-5fe82bc56b7e&w=350&h=350","Description":""}],"Documents":[]},{"$id":"154","ID":"82287fbe-a77a-4978-88c6-ca8296ef013e","LastUpdated":"2015-09-18T23:02:43.917","Name":"01.04.06 Caro van Eycklaan 16 trapveld","AddressLine1":"Caro van Eycklaan 16","Suburb":"Klapwijk","City":"Pijnacker","Area":"","PostCode":"2642 BM","Ref":"","AssetCount":4,"Lat":"52,01581","Lng":"4,448803","ChildLocations":[],"Images":[{"$id":"155","ID":"0f232ec9-9e0e-4804-853f-4bdec3dd24c3","LastUpdated":"2011-09-14T08:39:54","URI":"http://www.playmapping.com/GetImage.ashx?g=0f232ec9-9e0e-4804-853f-4bdec3dd24c3&w=350&h=350","Description":""}],"Documents":[{"$id":"156","ID":"7d353a87-b433-48a2-a127-023d52c547b0","LastUpdated":"2015-07-08T13:06:33.937","URI":"http://www.playmapping.com/DBStore/Documents/08b5dd68-8b5f-441c-b89e-dbc0ff95aee2/Brief veldje Caro van Eycklaan.pdf","Description":"Brief veldje Caro van Eycklaan"}]},{"$id":"157","ID":"b0e0f26f-fe8d-4805-bf50-5661a70ddf39","LastUpdated":"2015-09-18T23:02:44.46","Name":"01.04.07 Aagje Dekenstraat 10","AddressLine1":"Aagje Dekenstraat 10","Suburb":"Klapwijk","City":"Pijnacker","Area":"","PostCode":"2642 BG","Ref":"","AssetCount":6,"Lat":"52,01526","Lng":"4,446267","ChildLocations":[],"Images":[{"$id":"158","ID":"294f6e1b-851f-4e64-8381-1a12ca8e438e","LastUpdated":"2016-10-05T16:42:35.983","URI":"http://www.playmapping.com/GetImage.ashx?g=294f6e1b-851f-4e64-8381-1a12ca8e438e&w=350&h=350","Description":""},{"$id":"159","ID":"e2497e5c-d60f-40ba-87b9-2b995335410f","LastUpdated":"2010-07-06T18:52:11.257","URI":"http://www.playmapping.com/GetImage.ashx?g=e2497e5c-d60f-40ba-87b9-2b995335410f&w=350&h=350","Description":""}],"Documents":[]},{"$id":"160","ID":"c4871f7f-88a6-45c1-ba62-559551935545","LastUpdated":"2017-02-07T13:38:55.087","Name":"01.04.08 Betje Wolffstraat 10","AddressLine1":"Betje Wolffstraat 10","Suburb":"Klapwijk","City":"Pijnacker","Area":"","PostCode":"2642 BJ","Ref":"","AssetCount":8,"Lat":"52,01477","Lng":"4,447739","ChildLocations":[],"Images":[{"$id":"161","ID":"14d8d763-a9e4-48a9-8d3f-8669f9ef6e71","LastUpdated":"2010-07-06T18:52:26.653","URI":"http://www.playmapping.com/GetImage.ashx?g=14d8d763-a9e4-48a9-8d3f-8669f9ef6e71&w=350&h=350","Description":""}],"Documents":[]},{"$id":"162","ID":"78c368a4-91f4-4854-894c-8bb8828247d4","LastUpdated":"2015-09-18T23:02:43.837","Name":"01.04.09 Etty Hillesumsingel 60","AddressLine1":"Etty Hillesumsingel 60","Suburb":"Klapwijk","City":"Pijnacker","Area":"","PostCode":"2642 CP","Ref":"","AssetCount":15,"Lat":"52,01374","Lng":"4,448576","ChildLocations":[],"Images":[{"$id":"163","ID":"d4ffec91-56fc-4521-9014-81e023939933","LastUpdated":"2010-10-01T08:32:09","URI":"http://www.playmapping.com/GetImage.ashx?g=d4ffec91-56fc-4521-9014-81e023939933&w=350&h=350","Description":""},{"$id":"164","ID":"f81116f8-79b3-40bc-a636-9b1dc74951d8","LastUpdated":"2010-07-06T18:52:30.15","URI":"http://www.playmapping.com/GetImage.ashx?g=f81116f8-79b3-40bc-a636-9b1dc74951d8&w=350&h=350","Description":""}],"Documents":[]},{"$id":"165","ID":"f6b9bda0-6f9c-4ad4-815a-fd62a80e20d0","LastUpdated":"2017-02-05T11:54:47.09","Name":"01.04.10 Aletta Jacobsstraat 14","AddressLine1":"Aletta Jacobsstraat 14","Suburb":"Klapwijk","City":"Pijnacker","Area":"","PostCode":"2642 AD","Ref":"","AssetCount":6,"Lat":"52,01363","Lng":"4,445148","ChildLocations":[],"Images":[{"$id":"166","ID":"91a8d2f8-561e-4935-96a7-727b3e8f0805","LastUpdated":"2013-04-15T07:13:55.177","URI":"http://www.playmapping.com/GetImage.ashx?g=91a8d2f8-561e-4935-96a7-727b3e8f0805&w=350&h=350","Description":""},{"$id":"167","ID":"a022ee49-34ac-402e-a928-ccca7da4fc53","LastUpdated":"2016-03-30T07:49:09.643","URI":"http://www.playmapping.com/GetImage.ashx?g=a022ee49-34ac-402e-a928-ccca7da4fc53&w=350&h=350","Description":""}],"Documents":[]},{"$id":"168","ID":"7f01c260-fd82-4bcd-a3c5-f9ad48753d14","LastUpdated":"2017-02-07T13:41:19.92","Name":"01.04.11 Joke Smitstraat 10","AddressLine1":"Joke Smitstraat 10","Suburb":"Klapwijk","City":"Pijnacker","Area":"","PostCode":"2642 AE","Ref":"","AssetCount":6,"Lat":"52,01334","Lng":"4,446139","ChildLocations":[],"Images":[{"$id":"169","ID":"11398808-2e63-472e-802d-0751830630c1","LastUpdated":"2010-07-06T18:52:01.29","URI":"http://www.playmapping.com/GetImage.ashx?g=11398808-2e63-472e-802d-0751830630c1&w=350&h=350","Description":""}],"Documents":[]},{"$id":"170","ID":"4fc067bd-dacc-4619-9a47-3dc336b12119","LastUpdated":"2017-02-07T13:56:27.133","Name":"01.04.12 Coba Ritsemastraat 16","AddressLine1":"Coba Ritsemastraat 16","Suburb":"Klapwijk","City":"Pijnacker","Area":"","PostCode":"2642 CD","Ref":"","AssetCount":8,"Lat":"52,01208","Lng":"4,444179","ChildLocations":[],"Images":[{"$id":"171","ID":"165c8e84-cfeb-4916-838b-7c325745ef01","LastUpdated":"2010-07-06T18:52:25.053","URI":"http://www.playmapping.com/GetImage.ashx?g=165c8e84-cfeb-4916-838b-7c325745ef01&w=350&h=350","Description":""}],"Documents":[]},{"$id":"172","ID":"dbb856c3-2b18-4a3e-a034-f509e85560db","LastUpdated":"2017-02-07T13:54:52.757","Name":"01.04.13 Charley Tooroplaan 6","AddressLine1":"Charley Tooroplaan 6","Suburb":"Klapwijk","City":"Pijnacker","Area":"","PostCode":"2642 CK","Ref":"","AssetCount":8,"Lat":"52,0121","Lng":"4,445298","ChildLocations":[],"Images":[{"$id":"173","ID":"89c454cb-dcc6-49db-ad6b-6bbe4ff56e50","LastUpdated":"2015-04-23T09:25:04.9","URI":"http://www.playmapping.com/GetImage.ashx?g=89c454cb-dcc6-49db-ad6b-6bbe4ff56e50&w=350&h=350","Description":""},{"$id":"174","ID":"5c218f36-9895-4aca-a6ae-e70ff2f53d0f","LastUpdated":"2010-07-06T18:52:40.217","URI":"http://www.playmapping.com/GetImage.ashx?g=5c218f36-9895-4aca-a6ae-e70ff2f53d0f&w=350&h=350","Description":""}],"Documents":[]},{"$id":"175","ID":"f1670759-f6e8-46ca-a489-86c10ac9fe3a","LastUpdated":"2015-09-18T23:02:45.27","Name":"01.04.14 Anna van Schuurmanstraat 2","AddressLine1":"Anna van Schuurmanstraat 2","Suburb":"Klapwijk","City":"Pijnacker","Area":"","PostCode":"2642 CH","Ref":"","AssetCount":12,"Lat":"52,01118","Lng":"4,445606","ChildLocations":[],"Images":[{"$id":"176","ID":"0da43590-7cd0-4219-a9a7-7334343a11c5","LastUpdated":"2010-07-06T18:52:23.677","URI":"http://www.playmapping.com/GetImage.ashx?g=0da43590-7cd0-4219-a9a7-7334343a11c5&w=350&h=350","Description":""},{"$id":"177","ID":"40cacc3d-e7ca-4bcf-8295-8893dd4f4889","LastUpdated":"2017-04-18T09:07:55.593","URI":"http://www.playmapping.com/GetImage.ashx?g=40cacc3d-e7ca-4bcf-8295-8893dd4f4889&w=350&h=350","Description":""},{"$id":"178","ID":"ec3fdcfd-863a-48af-9937-fd2a09a25bc4","LastUpdated":"2016-03-30T08:18:50.86","URI":"http://www.playmapping.com/GetImage.ashx?g=ec3fdcfd-863a-48af-9937-fd2a09a25bc4&w=350&h=350","Description":""}],"Documents":[]},{"$id":"179","ID":"8ecfff6d-07cc-44dc-8dec-ff651b9aebbc","LastUpdated":"2015-11-19T14:03:16.18","Name":"01.04.17 Corry Besselingplantsoen 26","AddressLine1":"Corry Besselingplantsoen 26","Suburb":"Klapwijk","City":"Pijnacker","Area":"","PostCode":"2642 DE","Ref":"","AssetCount":24,"Lat":"52,01131","Lng":"4,450072","ChildLocations":[],"Images":[{"$id":"180","ID":"ff34a01f-ef4f-4fca-a258-14ee3f85fc82","LastUpdated":"2016-03-30T10:01:09.537","URI":"http://www.playmapping.com/GetImage.ashx?g=ff34a01f-ef4f-4fca-a258-14ee3f85fc82&w=350&h=350","Description":""},{"$id":"181","ID":"9fa612b0-6fbf-4c7c-ae3a-4e859ebaea7c","LastUpdated":"2010-07-06T18:52:17.26","URI":"http://www.playmapping.com/GetImage.ashx?g=9fa612b0-6fbf-4c7c-ae3a-4e859ebaea7c&w=350&h=350","Description":""},{"$id":"182","ID":"4293adbd-2c89-43a9-bdc7-62517b27f9a6","LastUpdated":"2016-03-30T10:00:11.147","URI":"http://www.playmapping.com/GetImage.ashx?g=4293adbd-2c89-43a9-bdc7-62517b27f9a6&w=350&h=350","Description":""},{"$id":"183","ID":"ae1090ff-f8d7-419a-990b-98a9aad378d6","LastUpdated":"2016-03-30T10:00:30.067","URI":"http://www.playmapping.com/GetImage.ashx?g=ae1090ff-f8d7-419a-990b-98a9aad378d6&w=350&h=350","Description":""}],"Documents":[]},{"$id":"184","ID":"22e39be8-5daf-41e3-b240-4e26f9c54e38","LastUpdated":"2015-09-18T23:02:42.803","Name":"01.04.18 Ru Parésingel 100","AddressLine1":"Ru Parésingel 100","Suburb":"Klapwijk","City":"Pijnacker","Area":"","PostCode":"2642 CR","Ref":"","AssetCount":14,"Lat":"52,01289","Lng":"4,45174","ChildLocations":[],"Images":[{"$id":"185","ID":"584b4512-0309-4ff9-9c0f-0a72d81bac80","LastUpdated":"2010-07-06T18:52:02.24","URI":"http://www.playmapping.com/GetImage.ashx?g=584b4512-0309-4ff9-9c0f-0a72d81bac80&w=350&h=350","Description":""},{"$id":"186","ID":"95564889-a924-4704-b7b2-bf577c341e20","LastUpdated":"2012-05-01T10:53:01","URI":"http://www.playmapping.com/GetImage.ashx?g=95564889-a924-4704-b7b2-bf577c341e20&w=350&h=350","Description":""},{"$id":"187","ID":"7144991a-c485-4d9d-aec6-e21d7b9f14a6","LastUpdated":"2016-03-30T10:12:48.397","URI":"http://www.playmapping.com/GetImage.ashx?g=7144991a-c485-4d9d-aec6-e21d7b9f14a6&w=350&h=350","Description":""}],"Documents":[]}],"Images":[],"Documents":[]},{"$id":"188","ID":"6dfb3b8c-f6f1-45e9-9665-c34149ae6067","LastUpdated":"2015-09-18T23:02:43.65","Name":"05 Tolhek","AddressLine1":"","Suburb":"","City":"","Area":"","PostCode":"","Ref":"","AssetCount":0,"Lat":"0","Lng":"0","ChildLocations":[{"$id":"189","ID":"fdedc672-3865-42fb-8475-c44d9228f123","LastUpdated":"2015-09-18T23:02:45.42","Name":"01.05.01 Meersingel 29-31","AddressLine1":"Meersingel 29-31","Suburb":"Tolhek","City":"Pijnacker","Area":"","PostCode":"2642 JC","Ref":"","AssetCount":6,"Lat":"52,00835","Lng":"4,449858","ChildLocations":[],"Images":[{"$id":"190","ID":"6283e477-bdba-4aab-a198-3cf9705417e6","LastUpdated":"2010-10-01T09:13:28","URI":"http://www.playmapping.com/GetImage.ashx?g=6283e477-bdba-4aab-a198-3cf9705417e6&w=350&h=350","Description":""},{"$id":"191","ID":"d113b3fb-9e35-43e7-8cdc-825585a48be7","LastUpdated":"2016-03-30T11:45:30.197","URI":"http://www.playmapping.com/GetImage.ashx?g=d113b3fb-9e35-43e7-8cdc-825585a48be7&w=350&h=350","Description":""}],"Documents":[]},{"$id":"192","ID":"93e724ab-8e87-4879-b0f0-ca4889be55f8","LastUpdated":"2015-09-18T23:02:44.083","Name":"01.05.02 Liora 23-25","AddressLine1":"Liora 23-25","Suburb":"Tolhek","City":"Pijnacker","Area":"","PostCode":"2642 JE","Ref":"","AssetCount":18,"Lat":"52,00863","Lng":"4,450369","ChildLocations":[],"Images":[{"$id":"193","ID":"4f45355b-cddd-472f-91c8-13b9027d8263","LastUpdated":"2016-09-20T06:34:01.803","URI":"http://www.playmapping.com/GetImage.ashx?g=4f45355b-cddd-472f-91c8-13b9027d8263&w=350&h=350","Description":""},{"$id":"194","ID":"a6363f5e-8320-4926-a81c-3e2d4b90e019","LastUpdated":"2010-07-06T18:52:14.333","URI":"http://www.playmapping.com/GetImage.ashx?g=a6363f5e-8320-4926-a81c-3e2d4b90e019&w=350&h=350","Description":""},{"$id":"195","ID":"6446b960-43fe-4362-87c5-c8e9b9336c6c","LastUpdated":"2011-03-16T09:23:27","URI":"http://www.playmapping.com/GetImage.ashx?g=6446b960-43fe-4362-87c5-c8e9b9336c6c&w=350&h=350","Description":""}],"Documents":[]},{"$id":"196","ID":"0774d1ad-a010-42b1-8122-c3f089566fca","LastUpdated":"2016-04-22T13:21:56.49","Name":"01.05.03 Wollebrand 45-47","AddressLine1":"Wollebrand 45-47","Suburb":"Tolhek","City":"Pijnacker","Area":"","PostCode":"2642 JH","Ref":"","AssetCount":12,"Lat":"52,00895","Lng":"4,451544","ChildLocations":[],"Images":[{"$id":"197","ID":"54c3e800-d719-4080-bf3b-0bf39a3a49f9","LastUpdated":"2010-07-06T18:52:02.697","URI":"http://www.playmapping.com/GetImage.ashx?g=54c3e800-d719-4080-bf3b-0bf39a3a49f9&w=350&h=350","Description":""}],"Documents":[]},{"$id":"198","ID":"5bff7cc2-ff99-40a4-bc32-360f782db8c8","LastUpdated":"2016-04-22T13:22:16.867","Name":"01.05.05 Meersingel 42-44","AddressLine1":"Meersingel 42-44","Suburb":"Tolhek","City":"Pijnacker","Area":"","PostCode":"2642 JB","Ref":"","AssetCount":6,"Lat":"52,00812","Lng":"4,448746","ChildLocations":[],"Images":[{"$id":"199","ID":"405da2f8-f3e9-43a5-ae7c-7cc3d22e0e01","LastUpdated":"2010-07-06T18:52:25.15","URI":"http://www.playmapping.com/GetImage.ashx?g=405da2f8-f3e9-43a5-ae7c-7cc3d22e0e01&w=350&h=350","Description":""}],"Documents":[]},{"$id":"200","ID":"e75b39b2-7ada-4ec5-8e53-938328d36260","LastUpdated":"2016-04-22T13:22:27.527","Name":"01.05.06 Zintele 4","AddressLine1":"Zintele 4","Suburb":"Tolhek","City":"Pijnacker","Area":"","PostCode":"2642 JS","Ref":"","AssetCount":10,"Lat":"52,00778","Lng":"4,447575","ChildLocations":[],"Images":[{"$id":"201","ID":"18d4f819-7f81-4de8-be23-4a1cda20e23f","LastUpdated":"2015-09-01T09:00:21.117","URI":"http://www.playmapping.com/GetImage.ashx?g=18d4f819-7f81-4de8-be23-4a1cda20e23f&w=350&h=350","Description":""},{"$id":"202","ID":"17c700cd-b1a9-463d-8caf-ad714ef04711","LastUpdated":"2011-03-16T09:29:32","URI":"http://www.playmapping.com/GetImage.ashx?g=17c700cd-b1a9-463d-8caf-ad714ef04711&w=350&h=350","Description":""},{"$id":"203","ID":"7bae19e0-db7e-4e86-8fbe-d705b3fa08aa","LastUpdated":"2010-07-06T18:52:37.863","URI":"http://www.playmapping.com/GetImage.ashx?g=7bae19e0-db7e-4e86-8fbe-d705b3fa08aa&w=350&h=350","Description":""}],"Documents":[]},{"$id":"204","ID":"122cedd0-eabb-4751-8405-ef5125d402cd","LastUpdated":"2016-04-22T13:22:41.177","Name":"01.05.07 Schie","AddressLine1":"Schie","Suburb":"Tolhek","City":"Pijnacker","Area":"","PostCode":"2642","Ref":"","AssetCount":2,"Lat":"52,009","Lng":"4,454399","ChildLocations":[],"Images":[{"$id":"205","ID":"640b2736-eac1-47ef-b9b1-717f60e3982c","LastUpdated":"2010-07-06T18:52:23.057","URI":"http://www.playmapping.com/GetImage.ashx?g=640b2736-eac1-47ef-b9b1-717f60e3982c&w=350&h=350","Description":""}],"Documents":[]},{"$id":"206","ID":"21ed1a94-f155-479e-9b72-819ab8c52107","LastUpdated":"2016-04-22T13:22:51.623","Name":"01.05.08 Trimbaan Park Tolhek","AddressLine1":"Mare t.h.v. 49","Suburb":"Tolhek","City":"Pijnacker","Area":"","PostCode":"2642 KA","Ref":"","AssetCount":16,"Lat":"52,00587","Lng":"4,452315","ChildLocations":[],"Images":[{"$id":"207","ID":"4e490486-1bad-4bd1-98f5-04767b1fa477","LastUpdated":"2011-09-14T12:28:21","URI":"http://www.playmapping.com/GetImage.ashx?g=4e490486-1bad-4bd1-98f5-04767b1fa477&w=350&h=350","Description":""},{"$id":"208","ID":"908b8072-a823-4ab2-b75e-150738b20438","LastUpdated":"2010-07-06T18:52:04.64","URI":"http://www.playmapping.com/GetImage.ashx?g=908b8072-a823-4ab2-b75e-150738b20438&w=350&h=350","Description":""},{"$id":"209","ID":"0d88bc3f-1459-4d71-b6ba-50730f056bcc","LastUpdated":"2016-03-30T12:57:16.9","URI":"http://www.playmapping.com/GetImage.ashx?g=0d88bc3f-1459-4d71-b6ba-50730f056bcc&w=350&h=350","Description":""},{"$id":"210","ID":"f338a04b-6429-478e-a01d-524cbdf52729","LastUpdated":"2016-09-12T13:20:18.363","URI":"http://www.playmapping.com/GetImage.ashx?g=f338a04b-6429-478e-a01d-524cbdf52729&w=350&h=350","Description":""},{"$id":"211","ID":"d12a9ee8-a65e-4b19-99b9-d39d7d06595c","LastUpdated":"2016-03-30T13:09:43.73","URI":"http://www.playmapping.com/GetImage.ashx?g=d12a9ee8-a65e-4b19-99b9-d39d7d06595c&w=350&h=350","Description":""}],"Documents":[]},{"$id":"212","ID":"cb114ba1-5ea1-41a2-85cd-5b2bf61361ec","LastUpdated":"2016-04-22T13:23:03.82","Name":"01.05.09 Zintele 20-22","AddressLine1":"Zintele 20-22","Suburb":"Tolhek","City":"Pijnacker","Area":"","PostCode":"2642 jS","Ref":"","AssetCount":6,"Lat":"52,0077","Lng":"4,446605","ChildLocations":[],"Images":[{"$id":"213","ID":"fa965cf4-7311-4e77-b91e-5b20c57d661e","LastUpdated":"2010-07-06T18:52:19.253","URI":"http://www.playmapping.com/GetImage.ashx?g=fa965cf4-7311-4e77-b91e-5b20c57d661e&w=350&h=350","Description":""}],"Documents":[]},{"$id":"214","ID":"130f06aa-6d07-4551-9916-83c9ffb8e8ee","LastUpdated":"2016-04-22T13:23:27.76","Name":"01.05.10 Roggeakker 18","AddressLine1":"Roggeakker 18","Suburb":"Tolhek","City":"Pijnacker","Area":"","PostCode":"2642 KK","Ref":"","AssetCount":2,"Lat":"52,00224","Lng":"4,449555","ChildLocations":[],"Images":[{"$id":"215","ID":"6a9226ef-19db-424f-a54c-82ca8d8451f7","LastUpdated":"2010-07-06T18:52:26.073","URI":"http://www.playmapping.com/GetImage.ashx?g=6a9226ef-19db-424f-a54c-82ca8d8451f7&w=350&h=350","Description":""}],"Documents":[]},{"$id":"216","ID":"1a775950-fb21-4ab5-8787-02ffce62ef50","LastUpdated":"2017-02-10T08:46:20.2","Name":"01.05.11 Meent 28","AddressLine1":"Meent 28","Suburb":"Tolhek","City":"Pijnacker","Area":"","PostCode":"2642 KM","Ref":"","AssetCount":16,"Lat":"52,0012","Lng":"4,450372","ChildLocations":[],"Images":[{"$id":"217","ID":"0dc66fb0-8fad-41fb-9097-b1f24b757fd2","LastUpdated":"2010-07-06T18:52:33.57","URI":"http://www.playmapping.com/GetImage.ashx?g=0dc66fb0-8fad-41fb-9097-b1f24b757fd2&w=350&h=350","Description":""}],"Documents":[]},{"$id":"218","ID":"595d334d-0ce8-4f3a-aa75-96253804773c","LastUpdated":"2017-02-10T08:48:02.887","Name":"01.05.12 Korenakker 6","AddressLine1":"Korenakker 6","Suburb":"Tolhek","City":"Pijnacker","Area":"","PostCode":"2642 KV","Ref":"","AssetCount":4,"Lat":"52,0033","Lng":"4,448258","ChildLocations":[],"Images":[{"$id":"219","ID":"9fc2cedb-fe2a-4ce5-a2db-641f194f8356","LastUpdated":"2010-07-06T18:52:20.883","URI":"http://www.playmapping.com/GetImage.ashx?g=9fc2cedb-fe2a-4ce5-a2db-641f194f8356&w=350&h=350","Description":""}],"Documents":[]},{"$id":"220","ID":"a2fcbb29-4c34-489a-9a31-c07fbbcc12d5","LastUpdated":"2016-04-22T13:24:06.077","Name":"01.05.13 Ade 9","AddressLine1":"Ade 9","Suburb":"Tolhek","City":"Pijnacker","Area":"","PostCode":"2642 JX","Ref":"","AssetCount":8,"Lat":"52,00643","Lng":"4,449527","ChildLocations":[],"Images":[{"$id":"221","ID":"7ca581af-7204-4813-aa5f-abbc16e9ee74","LastUpdated":"2010-07-06T18:52:32.787","URI":"http://www.playmapping.com/GetImage.ashx?g=7ca581af-7204-4813-aa5f-abbc16e9ee74&w=350&h=350","Description":""}],"Documents":[]},{"$id":"222","ID":"c1788c6e-bfd1-45c5-b3af-2e3046d2b9ba","LastUpdated":"2016-04-22T13:24:15.7","Name":"01.05.14 Mare 28","AddressLine1":"Mare 28","Suburb":"Tolhek","City":"Pijnacker","Area":"","PostCode":"2642 KB","Ref":"","AssetCount":10,"Lat":"52,0074","Lng":"4,454317","ChildLocations":[],"Images":[{"$id":"223","ID":"05dd9d5d-b8bc-4d08-bad0-5c509f9e70e0","LastUpdated":"2010-07-06T18:52:19.333","URI":"http://www.playmapping.com/GetImage.ashx?g=05dd9d5d-b8bc-4d08-bad0-5c509f9e70e0&w=350&h=350","Description":""},{"$id":"224","ID":"12ede59a-76fd-4b72-8e28-e5a8d75d4476","LastUpdated":"2016-03-30T13:24:02.667","URI":"http://www.playmapping.com/GetImage.ashx?g=12ede59a-76fd-4b72-8e28-e5a8d75d4476&w=350&h=350","Description":""}],"Documents":[]},{"$id":"225","ID":"5d574f2f-3499-4678-aca9-3da01b84815c","LastUpdated":"2017-02-05T11:55:16.533","Name":"01.05.15 Soetesuikerbol - Park Tolhek","AddressLine1":"Parklaan 49","Suburb":"Tolhek","City":"Pijnacker","Area":"","PostCode":"2642 JL","Ref":"","AssetCount":12,"Lat":"52,00655","Lng":"4,451217","ChildLocations":[],"Images":[{"$id":"226","ID":"6eb4de49-1a3d-4361-8951-4e79bb4ef31f","LastUpdated":"2014-09-26T09:50:15.863","URI":"http://www.playmapping.com/GetImage.ashx?g=6eb4de49-1a3d-4361-8951-4e79bb4ef31f&w=350&h=350","Description":""},{"$id":"227","ID":"3d7f3469-d9a8-48e9-8b73-b00a8eb690a5","LastUpdated":"2016-03-30T12:50:20.59","URI":"http://www.playmapping.com/GetImage.ashx?g=3d7f3469-d9a8-48e9-8b73-b00a8eb690a5&w=350&h=350","Description":""}],"Documents":[]},{"$id":"228","ID":"d31d12a4-845b-4079-8a08-9e547062b798","LastUpdated":"2017-02-05T11:55:40.893","Name":"01.05.16 Voetbalveld Park Tolhek","AddressLine1":"Mare 63","Suburb":"Tolhek","City":"Pijnacker","Area":"","PostCode":"2642 KA","Ref":"","AssetCount":4,"Lat":"52,00664","Lng":"4,452132","ChildLocations":[],"Images":[{"$id":"229","ID":"24191b0e-02f0-41a6-8a53-45c7592e4d8e","LastUpdated":"2014-09-26T08:59:12.427","URI":"http://www.playmapping.com/GetImage.ashx?g=24191b0e-02f0-41a6-8a53-45c7592e4d8e&w=350&h=350","Description":""},{"$id":"230","ID":"dac59dab-280b-4da6-bb8c-5a30ebba728d","LastUpdated":"2016-03-30T12:51:16.697","URI":"http://www.playmapping.com/GetImage.ashx?g=dac59dab-280b-4da6-bb8c-5a30ebba728d&w=350&h=350","Description":""}],"Documents":[]},{"$id":"231","ID":"9a61e314-57f5-49ce-ad79-315cef3faee2","LastUpdated":"2016-04-22T13:24:56.243","Name":"01.05.17 Enk 17","AddressLine1":"Enk 17","Suburb":"Tolhek","City":"Pijnacker","Area":"","PostCode":"2642 KW","Ref":"","AssetCount":6,"Lat":"52,00386","Lng":"4,448105","ChildLocations":[],"Images":[{"$id":"232","ID":"5ed38e08-ef5b-4c44-a561-3ca1396597a7","LastUpdated":"2016-03-31T08:26:25.047","URI":"http://www.playmapping.com/GetImage.ashx?g=5ed38e08-ef5b-4c44-a561-3ca1396597a7&w=350&h=350","Description":""},{"$id":"233","ID":"0c7fa1ab-311e-4900-9a45-5bf92385b18d","LastUpdated":"2010-07-06T18:52:19.277","URI":"http://www.playmapping.com/GetImage.ashx?g=0c7fa1ab-311e-4900-9a45-5bf92385b18d&w=350&h=350","Description":""}],"Documents":[]},{"$id":"234","ID":"f662e2a4-79d9-41b6-ac4b-16fe641ea1ef","LastUpdated":"2016-04-22T13:25:13.89","Name":"01.05.18 Gors 28","AddressLine1":"Gors 28","Suburb":"Tolhek","City":"Pijnacker","Area":"","PostCode":"2642 LB","Ref":"","AssetCount":16,"Lat":"52,00161","Lng":"4,452653","ChildLocations":[],"Images":[{"$id":"235","ID":"b8aaf8a8-836c-4bec-95bd-12bbb6533f6e","LastUpdated":"2010-07-06T18:52:04.287","URI":"http://www.playmapping.com/GetImage.ashx?g=b8aaf8a8-836c-4bec-95bd-12bbb6533f6e&w=350&h=350","Description":""},{"$id":"236","ID":"c86d689e-3510-4111-9e98-a65cda1cf843","LastUpdated":"2016-03-31T07:40:58.733","URI":"http://www.playmapping.com/GetImage.ashx?g=c86d689e-3510-4111-9e98-a65cda1cf843&w=350&h=350","Description":""}],"Documents":[]},{"$id":"237","ID":"892fc1e4-8ea1-467c-8309-83320c9f9675","LastUpdated":"2016-04-22T13:25:27.07","Name":"01.05.19 Nes 16","AddressLine1":"Nes 16","Suburb":"Tolhek","City":"Pijnacker","Area":"","PostCode":"2642 LA","Ref":"","AssetCount":8,"Lat":"52,00412","Lng":"4,449446","ChildLocations":[],"Images":[{"$id":"238","ID":"d6bd46c6-b297-40a4-8840-5550578478a7","LastUpdated":"2010-07-06T18:52:18.16","URI":"http://www.playmapping.com/GetImage.ashx?g=d6bd46c6-b297-40a4-8840-5550578478a7&w=350&h=350","Description":""}],"Documents":[]},{"$id":"239","ID":"a60f19e1-255f-4915-8a1e-c51e43e28ff2","LastUpdated":"2016-04-22T13:25:54.797","Name":"01.05.20 Klapwijkseweg naast Avia benzinestation","AddressLine1":"Klapwijkseweg 2","Suburb":"Tolhek","City":"Pijnacker","Area":"","PostCode":"2642 RB","Ref":"","AssetCount":2,"Lat":"52,00691","Lng":"4,446016","ChildLocations":[],"Images":[{"$id":"240","ID":"cdb7c14b-bc92-4cb5-aa52-366069497ca4","LastUpdated":"2010-07-06T18:52:13.237","URI":"http://www.playmapping.com/GetImage.ashx?g=cdb7c14b-bc92-4cb5-aa52-366069497ca4&w=350&h=350","Description":""},{"$id":"241","ID":"bb66fe8a-3249-46cf-8a44-dabc7d8cd88e","LastUpdated":"2015-11-02T09:50:08.633","URI":"http://www.playmapping.com/GetImage.ashx?g=bb66fe8a-3249-46cf-8a44-dabc7d8cd88e&w=350&h=350","Description":""}],"Documents":[]},{"$id":"242","ID":"e8e64d7c-5073-48ca-b83f-29804a49f739","LastUpdated":"2016-11-24T09:56:49.983","Name":"01.05.21 PSZ KI3 Gantellaan 3","AddressLine1":"PSZ KI3 Gantellaan 3","Suburb":"Tolhek","City":"Pijnacker","Area":"","PostCode":"2642 JK","Ref":"","AssetCount":14,"Lat":"52,01021","Lng":"4,451683","ChildLocations":[],"Images":[{"$id":"243","ID":"e756295d-0412-4c9d-8204-3b4d7b873710","LastUpdated":"2010-07-06T18:52:13.897","URI":"http://www.playmapping.com/GetImage.ashx?g=e756295d-0412-4c9d-8204-3b4d7b873710&w=350&h=350","Description":""},{"$id":"244","ID":"0bf70a94-f9fb-4e1c-8406-ee1b41a7d14d","LastUpdated":"2011-09-14T10:59:22","URI":"http://www.playmapping.com/GetImage.ashx?g=0bf70a94-f9fb-4e1c-8406-ee1b41a7d14d&w=350&h=350","Description":""}],"Documents":[]}],"Images":[],"Documents":[]},{"$id":"245","ID":"58793529-37f5-4402-88ad-774207c998b3","LastUpdated":"2017-02-07T15:42:37.477","Name":"06 Keijzershof Erven","AddressLine1":"","Suburb":"","City":"","Area":"","PostCode":"","Ref":"","AssetCount":0,"Lat":"0","Lng":"0","ChildLocations":[{"$id":"246","ID":"27075d57-a7be-4431-9c23-ef3937c19deb","LastUpdated":"2017-02-07T15:42:37.45","Name":"01.06.01 Hoornbloemerf 14","AddressLine1":"Hoornbloemerf 14","Suburb":"Keijzershof","City":"Pijnacker","Area":"","PostCode":"2643 HZ","Ref":"","AssetCount":2,"Lat":"52,00587","Lng":"4,43939","ChildLocations":[],"Images":[{"$id":"247","ID":"c07c57b2-b1c8-4f61-80e4-74000647df8c","LastUpdated":"2015-10-02T12:41:41.01","URI":"http://www.playmapping.com/GetImage.ashx?g=c07c57b2-b1c8-4f61-80e4-74000647df8c&w=350&h=350","Description":""},{"$id":"248","ID":"fd3e3d5e-c428-42ff-9ef4-8ae9077bba7f","LastUpdated":"2013-04-16T08:20:49.823","URI":"http://www.playmapping.com/GetImage.ashx?g=fd3e3d5e-c428-42ff-9ef4-8ae9077bba7f&w=350&h=350","Description":""}],"Documents":[]},{"$id":"249","ID":"8ba7471f-bb91-4e7c-a06d-fb229b6289e3","LastUpdated":"2017-02-07T15:42:37.51","Name":"01.06.02 Vogelmuurerf 21","AddressLine1":"Vogelmuurerf 21","Suburb":"Keijzershof","City":"Pijnacker","Area":"","PostCode":"2643 HP","Ref":"","AssetCount":4,"Lat":"52,00681","Lng":"4,441593","ChildLocations":[],"Images":[{"$id":"250","ID":"35093c95-4d18-4dba-b165-32942178f49d","LastUpdated":"2016-08-16T13:45:26.113","URI":"http://www.playmapping.com/GetImage.ashx?g=35093c95-4d18-4dba-b165-32942178f49d&w=350&h=350","Description":""},{"$id":"251","ID":"2850101a-c6a6-43d3-8159-c0b61975aea7","LastUpdated":"2016-08-09T10:44:54.693","URI":"http://www.playmapping.com/GetImage.ashx?g=2850101a-c6a6-43d3-8159-c0b61975aea7&w=350&h=350","Description":""},{"$id":"252","ID":"439efc2b-e256-4bfc-921a-dc13a7b7299f","LastUpdated":"2010-07-06T18:52:38.4","URI":"http://www.playmapping.com/GetImage.ashx?g=439efc2b-e256-4bfc-921a-dc13a7b7299f&w=350&h=350","Description":""}],"Documents":[]},{"$id":"253","ID":"8603f9ca-901f-44c5-834f-2121d04d081a","LastUpdated":"2017-02-07T15:42:37.5","Name":"01.06.03 Madelief 1 t/m 20","AddressLine1":"Madelief 1 t/m 20","Suburb":"Keijzershof","City":"Pijnacker","Area":"","PostCode":"2643 HN","Ref":"","AssetCount":20,"Lat":"52,00593","Lng":"4,441293","ChildLocations":[],"Images":[{"$id":"254","ID":"000b3677-81ad-4327-b900-556d0b169560","LastUpdated":"2016-08-09T10:48:26.913","URI":"http://www.playmapping.com/GetImage.ashx?g=000b3677-81ad-4327-b900-556d0b169560&w=350&h=350","Description":""},{"$id":"255","ID":"a89a65fe-bb55-46d5-9e47-be4aec2d331e","LastUpdated":"2010-07-06T18:52:35.08","URI":"http://www.playmapping.com/GetImage.ashx?g=a89a65fe-bb55-46d5-9e47-be4aec2d331e&w=350&h=350","Description":""}],"Documents":[]},{"$id":"256","ID":"6f12fdc6-adf5-41c2-8492-d0a3322a466c","LastUpdated":"2017-02-07T15:42:37.493","Name":"01.06.04 Hoefbladplein 2","AddressLine1":"Hoefbladplein 2","Suburb":"Keijzershof","City":"Pijnacker","Area":"Bij winkelcentrum Keizershof","PostCode":"2643 KD","Ref":"","AssetCount":4,"Lat":"52,00431","Lng":"4,442996","ChildLocations":[],"Images":[{"$id":"257","ID":"4214e857-9e27-418f-92b3-67190e2c50f6","LastUpdated":"2014-09-30T08:08:51.237","URI":"http://www.playmapping.com/GetImage.ashx?g=4214e857-9e27-418f-92b3-67190e2c50f6&w=350&h=350","Description":""},{"$id":"258","ID":"3c1f0288-c7b6-4f79-a9b5-a31fe4cd5020","LastUpdated":"2016-03-31T11:07:32.77","URI":"http://www.playmapping.com/GetImage.ashx?g=3c1f0288-c7b6-4f79-a9b5-a31fe4cd5020&w=350&h=350","Description":""}],"Documents":[]},{"$id":"259","ID":"b7127e77-2a84-439d-b5b9-e7c247c7e6aa","LastUpdated":"2017-02-07T15:42:37.533","Name":"01.06.05 Floralaan 77","AddressLine1":"Floralaan 77","Suburb":"Keijzershof","City":"Pijnacker","Area":"","PostCode":"2643 HA","Ref":"","AssetCount":4,"Lat":"52,0073","Lng":"4,443098","ChildLocations":[],"Images":[{"$id":"260","ID":"3c61e0f5-f73e-487d-875b-5da971276fa5","LastUpdated":"2011-09-13T13:22:26","URI":"http://www.playmapping.com/GetImage.ashx?g=3c61e0f5-f73e-487d-875b-5da971276fa5&w=350&h=350","Description":""},{"$id":"261","ID":"867962e7-5559-4c96-8c93-71b864c7f226","LastUpdated":"2015-10-23T09:30:12.873","URI":"http://www.playmapping.com/GetImage.ashx?g=867962e7-5559-4c96-8c93-71b864c7f226&w=350&h=350","Description":""}],"Documents":[]},{"$id":"262","ID":"b2d1f796-9b85-4cc6-af22-c91b997071b8","LastUpdated":"2017-02-07T15:42:37.523","Name":"01.06.06 Floralaan 112","AddressLine1":"Floralaan tegenover 33 (bij Zorghotel)","Suburb":"Keijzershof","City":"Pijnacker","Area":"","PostCode":"2643 HD","Ref":"","AssetCount":2,"Lat":"52,00592","Lng":"4,443714","ChildLocations":[],"Images":[{"$id":"263","ID":"2922b607-f27d-4a9b-94f8-3dc4dab3f29f","LastUpdated":"2016-08-16T13:33:54.347","URI":"http://www.playmapping.com/GetImage.ashx?g=2922b607-f27d-4a9b-94f8-3dc4dab3f29f&w=350&h=350","Description":""},{"$id":"264","ID":"684fac37-198b-4d40-88b3-6bc506c579ff","LastUpdated":"2011-09-13T13:58:38","URI":"http://www.playmapping.com/GetImage.ashx?g=684fac37-198b-4d40-88b3-6bc506c579ff&w=350&h=350","Description":""},{"$id":"265","ID":"95ea2e74-35c0-46da-8dde-6e006e00c12a","LastUpdated":"2016-03-31T11:00:46.083","URI":"http://www.playmapping.com/GetImage.ashx?g=95ea2e74-35c0-46da-8dde-6e006e00c12a&w=350&h=350","Description":""}],"Documents":[]},{"$id":"266","ID":"3d2308db-db7b-4689-bc64-8c90b01ee9d1","LastUpdated":"2017-02-07T15:42:37.467","Name":"01.06.07 Kamille-erf 51","AddressLine1":"Kamille-erf 51","Suburb":"Keijzershof","City":"Pijnacker","Area":"","PostCode":"2643 HX","Ref":"","AssetCount":8,"Lat":"52,00648","Lng":"4,439624","ChildLocations":[],"Images":[{"$id":"267","ID":"d1cb02c5-718d-4f4c-90f6-4195394497f8","LastUpdated":"2015-10-23T09:22:28.1","URI":"http://www.playmapping.com/GetImage.ashx?g=d1cb02c5-718d-4f4c-90f6-4195394497f8&w=350&h=350","Description":""},{"$id":"268","ID":"22934df7-14bb-404e-bca1-ec9ae93e5e6c","LastUpdated":"2013-04-16T08:22:45.64","URI":"http://www.playmapping.com/GetImage.ashx?g=22934df7-14bb-404e-bca1-ec9ae93e5e6c&w=350&h=350","Description":""}],"Documents":[]},{"$id":"269","ID":"2df76167-784b-40cf-a707-4e0005e3928c","LastUpdated":"2017-02-07T15:42:37.46","Name":"01.06.08 Zilverreigerdreef 103","AddressLine1":"Zilverreigerdreef 103","Suburb":"Keijzershof","City":"Pijnacker","Area":"Bij scholen/sporthal \"Het Nest\"","PostCode":"2643 MC","Ref":"","AssetCount":12,"Lat":"52,00229","Lng":"4,437747","ChildLocations":[],"Images":[{"$id":"270","ID":"8c17726c-060d-4559-8257-0fce70bf4069","LastUpdated":"2014-09-30T08:23:03.297","URI":"http://www.playmapping.com/GetImage.ashx?g=8c17726c-060d-4559-8257-0fce70bf4069&w=350&h=350","Description":""},{"$id":"271","ID":"806942b3-26f9-4299-aae5-2e1e73068fdc","LastUpdated":"2016-03-31T11:35:51.693","URI":"http://www.playmapping.com/GetImage.ashx?g=806942b3-26f9-4299-aae5-2e1e73068fdc&w=350&h=350","Description":""},{"$id":"272","ID":"48598399-897f-4c36-a58d-3f461768e869","LastUpdated":"2016-03-31T11:20:40.88","URI":"http://www.playmapping.com/GetImage.ashx?g=48598399-897f-4c36-a58d-3f461768e869&w=350&h=350","Description":""},{"$id":"273","ID":"a2f5b007-106e-4dc3-8817-4d6e3f2fef52","LastUpdated":"2016-08-18T13:33:58.717","URI":"http://www.playmapping.com/GetImage.ashx?g=a2f5b007-106e-4dc3-8817-4d6e3f2fef52&w=350&h=350","Description":""},{"$id":"274","ID":"43b5f2e3-ac77-4bb1-b1ec-73889f34449a","LastUpdated":"2015-04-28T08:55:30.21","URI":"http://www.playmapping.com/GetImage.ashx?g=43b5f2e3-ac77-4bb1-b1ec-73889f34449a&w=350&h=350","Description":""}],"Documents":[]},{"$id":"275","ID":"b09abace-2ac2-45ec-b198-50f2ff62385b","LastUpdated":"2017-03-31T08:40:23.697","Name":"01.06.09 Bosmuiszoom 19","AddressLine1":"Bosmuiszoom 19","Suburb":"Keijzershof","City":"Pijnacker","Area":"","PostCode":"2643 KE","Ref":"","AssetCount":4,"Lat":"52,00276","Lng":"4,442823","ChildLocations":[],"Images":[{"$id":"276","ID":"716de2b4-3b5c-4560-8710-635001155208","LastUpdated":"2015-10-23T09:17:55.603","URI":"http://www.playmapping.com/GetImage.ashx?g=716de2b4-3b5c-4560-8710-635001155208&w=350&h=350","Description":""},{"$id":"277","ID":"4a891d07-3f0d-4ffe-a8f6-d778d566b17a","LastUpdated":"2014-04-28T06:39:05.9","URI":"http://www.playmapping.com/GetImage.ashx?g=4a891d07-3f0d-4ffe-a8f6-d778d566b17a&w=350&h=350","Description":""}],"Documents":[]}],"Images":[],"Documents":[]},{"$id":"278","ID":"4d3f5a8f-06de-4f08-976a-5b4a52892e31","LastUpdated":"2017-02-07T15:47:47.91","Name":"07 Keijzershof Boszoom","AddressLine1":"","Suburb":"","City":"","Area":"","PostCode":"","Ref":"","AssetCount":0,"Lat":"0","Lng":"0","ChildLocations":[{"$id":"279","ID":"c630cc57-b661-47e9-8c30-9ec537afe9f9","LastUpdated":"2017-02-07T15:48:03.89","Name":"01.07.01 Steenuilweide 19","AddressLine1":"Steenuilweide 19","Suburb":"Keijzershof Boszoom","City":"Pijnacker","Area":"","PostCode":"2643 LX","Ref":"","AssetCount":6,"Lat":"52,00058","Lng":"4,438561","ChildLocations":[],"Images":[{"$id":"280","ID":"d496e276-15aa-486c-846a-7f4373731074","LastUpdated":"2015-09-11T08:55:14.493","URI":"http://www.playmapping.com/GetImage.ashx?g=d496e276-15aa-486c-846a-7f4373731074&w=350&h=350","Description":""},{"$id":"281","ID":"0b393ee3-bcdc-4fa6-bbc7-bcbab5ee9dca","LastUpdated":"2016-08-18T13:26:37.123","URI":"http://www.playmapping.com/GetImage.ashx?g=0b393ee3-bcdc-4fa6-bbc7-bcbab5ee9dca&w=350&h=350","Description":""}],"Documents":[]},{"$id":"282","ID":"5eee0e6c-c145-4ffe-adae-652619d3cf82","LastUpdated":"2017-02-07T15:48:18.477","Name":"01.07.02 Vleermuiszoom 19","AddressLine1":"Vleermuiszoom 19","Suburb":"Keijzershof Boszoom","City":"Pijnacker","Area":"","PostCode":"2643 KR","Ref":"","AssetCount":14,"Lat":"52,00227","Lng":"4,444264","ChildLocations":[],"Images":[{"$id":"283","ID":"69d9d435-4f80-42c4-90f5-6669c3fde639","LastUpdated":"2016-08-16T13:50:02.05","URI":"http://www.playmapping.com/GetImage.ashx?g=69d9d435-4f80-42c4-90f5-6669c3fde639&w=350&h=350","Description":""}],"Documents":[]}],"Images":[],"Documents":[]},{"$id":"284","ID":"553706c0-7942-474b-a24d-d5d2fa4687ac","LastUpdated":"2017-02-07T15:47:19.797","Name":"08 Ackerswoude","AddressLine1":"","Suburb":"","City":"","Area":"","PostCode":"","Ref":"","AssetCount":0,"Lat":"0","Lng":"0","ChildLocations":[{"$id":"285","ID":"71ba28a2-b554-4073-9f93-0651237ca4e7","LastUpdated":"2017-02-07T15:47:32.493","Name":"01.08.01 Speelplek Brink van Dik Trom","AddressLine1":"Brink van Dik Trom","Suburb":"Ackerswoude","City":"Pijnacker","Area":"","PostCode":"2641 BS","Ref":"","AssetCount":2,"Lat":"52,01994","Lng":"4,44034","ChildLocations":[],"Images":[{"$id":"286","ID":"0815fffd-718f-4b65-9bd9-2e3ccaf75df3","LastUpdated":"2017-03-10T08:14:29.16","URI":"http://www.playmapping.com/GetImage.ashx?g=0815fffd-718f-4b65-9bd9-2e3ccaf75df3&w=350&h=350","Description":""}],"Documents":[]}],"Images":[],"Documents":[]},{"$id":"287","ID":"5bbc5d22-bd45-4972-adc8-a99af178152d","LastUpdated":"2017-02-07T15:42:56.283","Name":"09 Zuidpolder Oude Leede","AddressLine1":"","Suburb":"","City":"","Area":"","PostCode":"","Ref":"","AssetCount":0,"Lat":"0","Lng":"0","ChildLocations":[{"$id":"288","ID":"01d0ebfa-3426-40cf-a1c6-be8a11e76afb","LastUpdated":"2017-02-07T15:43:57.963","Name":"01.09.01 Oude Leedeweg 62A Buurthuis het Oude Laarsje","AddressLine1":"Oude Leedeweg 62A","Suburb":"Zuidpolder Oude Leede","City":"Pijnacker","Area":"","PostCode":"2641 NS","Ref":"","AssetCount":14,"Lat":"51,98606","Lng":"4,421828","ChildLocations":[],"Images":[{"$id":"289","ID":"2b188430-c304-4fc5-8c0a-1a4b045da6c9","LastUpdated":"2016-03-31T12:15:47.303","URI":"http://www.playmapping.com/GetImage.ashx?g=2b188430-c304-4fc5-8c0a-1a4b045da6c9&w=350&h=350","Description":""},{"$id":"290","ID":"60627bbf-00c4-4a91-861f-6f8fca791b34","LastUpdated":"2010-07-06T18:52:22.773","URI":"http://www.playmapping.com/GetImage.ashx?g=60627bbf-00c4-4a91-861f-6f8fca791b34&w=350&h=350","Description":""}],"Documents":[]},{"$id":"291","ID":"af4e4009-08c4-4846-9d5d-9c91f8fba413","LastUpdated":"2017-02-07T15:44:09.557","Name":"01.09.02 Oude Leedeweg 163","AddressLine1":"Oude Leedeweg 163","Suburb":"Zuidpolder Oude Leede","City":"Pijnacker","Area":"","PostCode":"2641 SE","Ref":"","AssetCount":14,"Lat":"51,98484","Lng":"4,418291","ChildLocations":[],"Images":[{"$id":"292","ID":"a7e1cfd0-f4ab-4daf-ad9b-1d53fc8fa0a6","LastUpdated":"2010-07-06T18:52:07.28","URI":"http://www.playmapping.com/GetImage.ashx?g=a7e1cfd0-f4ab-4daf-ad9b-1d53fc8fa0a6&w=350&h=350","Description":""}],"Documents":[]}],"Images":[],"Documents":[]},{"$id":"293","ID":"b688a1a8-64e1-4e77-b8e0-7d455aa8fdf6","LastUpdated":"2017-02-07T15:43:35.557","Name":"10 Noordpolder Pijnacker","AddressLine1":"","Suburb":"","City":"","Area":"","PostCode":"","Ref":"","AssetCount":0,"Lat":"0","Lng":"0","ChildLocations":[{"$id":"294","ID":"40f8290f-5eb4-4bb6-9565-4b9705970eab","LastUpdated":"2017-02-07T15:44:25.623","Name":"01.10.01 Sportlaan 6 (hockeyclub)","AddressLine1":"Sportlaan 6","Suburb":"Noordpolder Pijnacker","City":"Pijnacker","Area":"","PostCode":"2641 AZ","Ref":"","AssetCount":8,"Lat":"52,02498","Lng":"4,417175","ChildLocations":[],"Images":[{"$id":"295","ID":"7a9cc5a1-00a3-469d-8193-223f1ea49b24","LastUpdated":"2016-09-12T12:21:10.753","URI":"http://www.playmapping.com/GetImage.ashx?g=7a9cc5a1-00a3-469d-8193-223f1ea49b24&w=350&h=350","Description":""}],"Documents":[]}],"Images":[],"Documents":[]}],"Images":[],"Documents":[]},{"$id":"296","ID":"e91c629b-247b-4269-b921-3a5c75834e23","LastUpdated":"2015-09-18T23:02:45.153","Name":"02 Nootdorp","AddressLine1":"","Suburb":"","City":"","Area":"","PostCode":"","Ref":"","AssetCount":0,"Lat":"0","Lng":"0","ChildLocations":[{"$id":"297","ID":"ea5796f0-625b-4593-adf5-8a1db4c7324d","LastUpdated":"2015-09-18T23:02:45.21","Name":"21 Nootdorp Centrum/West","AddressLine1":"","Suburb":"","City":"","Area":"","PostCode":"","Ref":"","AssetCount":0,"Lat":"0","Lng":"0","ChildLocations":[{"$id":"298","ID":"45d60bb1-88af-406c-b29e-76b4e90838bf","LastUpdated":"2017-02-05T12:08:35.79","Name":"02.21.01 Dr. Peter van Anrooijstraat 2","AddressLine1":"Dr. Peter van Anrooijstraat 2","Suburb":"Nootdorp Centrum/West","City":"Nootdorp","Area":"Achter de huizen","PostCode":"2631 AR","Ref":"","AssetCount":8,"Lat":"52,04229","Lng":"4,388323","ChildLocations":[],"Images":[{"$id":"299","ID":"28793244-b0c3-43f7-aafa-15d7c395dc96","LastUpdated":"2010-07-06T18:52:04.863","URI":"http://www.playmapping.com/GetImage.ashx?g=28793244-b0c3-43f7-aafa-15d7c395dc96&w=350&h=350","Description":""}],"Documents":[]},{"$id":"300","ID":"e41666de-cf78-49ac-95fe-4e2028c00a60","LastUpdated":"2017-05-04T10:34:13.313","Name":"02.21.02 Nieuwveenstraat 2 (achter huizen)","AddressLine1":"Nieuwveenstraat 2","Suburb":"Nootdorp Centrum/West","City":"Nootdorp","Area":"","PostCode":"2631 AT","Ref":"","AssetCount":7,"Lat":"52,04313","Lng":"4,388412","ChildLocations":[],"Images":[{"$id":"301","ID":"a23d1ca3-9fea-4121-9964-1baaaa508b3a","LastUpdated":"2010-07-06T18:52:06.61","URI":"http://www.playmapping.com/GetImage.ashx?g=a23d1ca3-9fea-4121-9964-1baaaa508b3a&w=350&h=350","Description":""},{"$id":"302","ID":"209da91d-5771-43b3-aa22-5c1509bff927","LastUpdated":"2013-04-18T06:28:01.73","URI":"http://www.playmapping.com/GetImage.ashx?g=209da91d-5771-43b3-aa22-5c1509bff927&w=350&h=350","Description":""},{"$id":"303","ID":"976f652d-f276-47bc-b8d0-bd3952a54b79","LastUpdated":"2015-11-14T16:06:40.613","URI":"http://www.playmapping.com/GetImage.ashx?g=976f652d-f276-47bc-b8d0-bd3952a54b79&w=350&h=350","Description":""}],"Documents":[]},{"$id":"304","ID":"1705a42c-8a3a-433f-92bf-98d900225a78","LastUpdated":"2015-09-18T23:02:42.627","Name":"02.21.03 Hof van Delftstraat 2","AddressLine1":"Hof van Delftstraat 2","Suburb":"Nootdorp Centrum/West","City":"Nootdorp","Area":"","PostCode":"2631 AG","Ref":"","AssetCount":4,"Lat":"52,04235","Lng":"4,391329","ChildLocations":[],"Images":[{"$id":"305","ID":"7271f295-aaa5-4256-8d9b-7a68f3c2325a","LastUpdated":"2010-07-06T18:52:24.723","URI":"http://www.playmapping.com/GetImage.ashx?g=7271f295-aaa5-4256-8d9b-7a68f3c2325a&w=350&h=350","Description":""},{"$id":"306","ID":"dd54f331-3178-490c-a969-8e987457bb6a","LastUpdated":"2016-04-05T07:29:53.47","URI":"http://www.playmapping.com/GetImage.ashx?g=dd54f331-3178-490c-a969-8e987457bb6a&w=350&h=350","Description":""}],"Documents":[]},{"$id":"307","ID":"9eae2cd6-d1b1-4e65-9f47-668736163f23","LastUpdated":"2017-02-05T12:10:51.177","Name":"02.21.04 Julianastraat 12a PSZ Klauterbeer","AddressLine1":"Koningin Julianastraat 12a PSZ Klauterbeer","Suburb":"Nootdorp Centrum/West","City":"Nootdorp","Area":"","PostCode":"2631 GB","Ref":"","AssetCount":20,"Lat":"52,04624","Lng":"4,394814","ChildLocations":[],"Images":[{"$id":"308","ID":"2fa6eaaf-6e9f-4dd4-9c6a-22d64d509bb4","LastUpdated":"2010-07-06T18:52:08.753","URI":"http://www.playmapping.com/GetImage.ashx?g=2fa6eaaf-6e9f-4dd4-9c6a-22d64d509bb4&w=350&h=350","Description":""}],"Documents":[]},{"$id":"309","ID":"51f2b5bf-3244-4110-b944-fab70b9652a4","LastUpdated":"2017-04-10T10:27:45.323","Name":"02.21.05 Winston Churchillstraat 16","AddressLine1":"Winston Churchillstraat 16","Suburb":"Nootdorp Centrum/West","City":"Nootdorp","Area":"","PostCode":"2631 AL","Ref":"","AssetCount":6,"Lat":"52,04168","Lng":"4,386919","ChildLocations":[],"Images":[{"$id":"310","ID":"4f358c53-dd23-486d-ada2-cdab8783c86c","LastUpdated":"2010-07-06T18:52:36.317","URI":"http://www.playmapping.com/GetImage.ashx?g=4f358c53-dd23-486d-ada2-cdab8783c86c&w=350&h=350","Description":""}],"Documents":[]},{"$id":"311","ID":"4fab8cd3-f3a9-497a-a8b1-a173e17e7a41","LastUpdated":"2016-05-27T09:47:06.877","Name":"02.21.06 Koningin Julianastraat/Prins Bernhardstraat 39","AddressLine1":"Prins Bernhardstraat 39","Suburb":"Nootdorp Centrum/West","City":"Nootdorp","Area":"","PostCode":"2631 EB","Ref":"","AssetCount":6,"Lat":"52,04528","Lng":"4,394249","ChildLocations":[],"Images":[{"$id":"312","ID":"ad74e317-71f7-4488-81f8-10ffbbc9f240","LastUpdated":"2011-03-17T14:12:18","URI":"http://www.playmapping.com/GetImage.ashx?g=ad74e317-71f7-4488-81f8-10ffbbc9f240&w=350&h=350","Description":""},{"$id":"313","ID":"0f2b6505-7370-41e7-a565-c14d54f35869","LastUpdated":"2016-04-05T08:27:07.487","URI":"http://www.playmapping.com/GetImage.ashx?g=0f2b6505-7370-41e7-a565-c14d54f35869&w=350&h=350","Description":""},{"$id":"314","ID":"3d6ab5a6-0a79-4db7-a9ed-da426aef4e4c","LastUpdated":"2016-04-05T08:28:44.377","URI":"http://www.playmapping.com/GetImage.ashx?g=3d6ab5a6-0a79-4db7-a9ed-da426aef4e4c&w=350&h=350","Description":""}],"Documents":[]},{"$id":"315","ID":"d7f1728c-c185-471c-958c-b8948ae9e10a","LastUpdated":"2015-09-18T23:02:44.94","Name":"02.21.07 Koningin Wilhelminastraat 30","AddressLine1":"Koningin Wilhelminastraat 30","Suburb":"Nootdorp Centrum/West","City":"Nootdorp","Area":"","PostCode":"2631 CW","Ref":"","AssetCount":4,"Lat":"52,04338","Lng":"4,393857","ChildLocations":[],"Images":[{"$id":"316","ID":"547ac1fe-90cf-448a-8aef-1f06df48729a","LastUpdated":"2016-04-05T08:10:09.907","URI":"http://www.playmapping.com/GetImage.ashx?g=547ac1fe-90cf-448a-8aef-1f06df48729a&w=350&h=350","Description":""},{"$id":"317","ID":"0cc2c032-d8d7-476c-bd49-ee381c3d3d93","LastUpdated":"2011-03-17T14:01:09","URI":"http://www.playmapping.com/GetImage.ashx?g=0cc2c032-d8d7-476c-bd49-ee381c3d3d93&w=350&h=350","Description":""}],"Documents":[]}],"Images":[],"Documents":[]},{"$id":"318","ID":"7ae94b2d-002b-472c-91d6-515b2c146b7e","LastUpdated":"2015-09-18T23:02:43.85","Name":"22 Vrouwtjeslant/Nieuweveen","AddressLine1":"","Suburb":"","City":"","Area":"","PostCode":"","Ref":"","AssetCount":0,"Lat":"0","Lng":"0","ChildLocations":[{"$id":"319","ID":"38a7b0eb-d7fd-4c5a-9a77-b05c95b33434","LastUpdated":"2015-09-18T23:02:42.99","Name":"02.22.01 Seringenlaan 1","AddressLine1":"Seringenlaan 1","Suburb":"Vrouwtjeslant/Nieuweveen","City":"Nootdorp","Area":"","PostCode":"2631 JP","Ref":"","AssetCount":4,"Lat":"52,04578","Lng":"4,399033","ChildLocations":[],"Images":[{"$id":"320","ID":"b82720d5-51ed-4de7-8482-119d3f85c581","LastUpdated":"2016-04-06T07:30:30.793","URI":"http://www.playmapping.com/GetImage.ashx?g=b82720d5-51ed-4de7-8482-119d3f85c581&w=350&h=350","Description":""},{"$id":"321","ID":"ca2d7b35-777b-4439-b893-afb50c0391c1","LastUpdated":"2012-05-04T11:44:50","URI":"http://www.playmapping.com/GetImage.ashx?g=ca2d7b35-777b-4439-b893-afb50c0391c1&w=350&h=350","Description":""},{"$id":"322","ID":"afa07a22-2f4f-40dd-b274-f1240bea6e10","LastUpdated":"2016-07-14T15:43:13.663","URI":"http://www.playmapping.com/GetImage.ashx?g=afa07a22-2f4f-40dd-b274-f1240bea6e10&w=350&h=350","Description":""},{"$id":"323","ID":"e78d1283-d25e-4e3d-9c58-f141ef633302","LastUpdated":"2010-07-06T18:52:41.477","URI":"http://www.playmapping.com/GetImage.ashx?g=e78d1283-d25e-4e3d-9c58-f141ef633302&w=350&h=350","Description":""}],"Documents":[]},{"$id":"324","ID":"86a4ce4f-2979-404b-b69b-09725009f51d","LastUpdated":"2016-05-27T09:46:24.217","Name":"02.22.02 Eikendreef 1","AddressLine1":"Eikendreef 1","Suburb":"Vrouwtjeslant/Nieuweveen","City":"Nootdorp","Area":"","PostCode":"2631 JG","Ref":"","AssetCount":8,"Lat":"52,04665","Lng":"4,397129","ChildLocations":[],"Images":[{"$id":"325","ID":"75726a60-0f4b-4043-8334-09d78c58cc89","LastUpdated":"2016-05-27T09:45:12.877","URI":"http://www.playmapping.com/GetImage.ashx?g=75726a60-0f4b-4043-8334-09d78c58cc89&w=350&h=350","Description":""},{"$id":"326","ID":"ae0daef0-cf99-4407-91b4-f1a8fb844548","LastUpdated":"2010-10-05T08:31:21","URI":"http://www.playmapping.com/GetImage.ashx?g=ae0daef0-cf99-4407-91b4-f1a8fb844548&w=350&h=350","Description":""}],"Documents":[]},{"$id":"327","ID":"7049f0dc-80ff-40d1-8665-1feba1a9cb6d","LastUpdated":"2015-09-18T23:02:43.68","Name":"02.22.03 Kamperfoeliehof 7","AddressLine1":"Kamperfoeliehof 7","Suburb":"Vrouwtjeslant/Nieuweveen","City":"Nootdorp","Area":"","PostCode":"2631 JH","Ref":"","AssetCount":4,"Lat":"52,04681","Lng":"4,398525","ChildLocations":[],"Images":[{"$id":"328","ID":"c31c44b5-bfed-4456-a5b2-0132bf1e8f9c","LastUpdated":"2016-04-06T07:38:16.28","URI":"http://www.playmapping.com/GetImage.ashx?g=c31c44b5-bfed-4456-a5b2-0132bf1e8f9c&w=350&h=350","Description":""},{"$id":"329","ID":"715cfb3f-a0e5-48ef-a264-19c82ac81b7d","LastUpdated":"2012-05-04T10:48:30","URI":"http://www.playmapping.com/GetImage.ashx?g=715cfb3f-a0e5-48ef-a264-19c82ac81b7d&w=350&h=350","Description":""},{"$id":"330","ID":"2008984e-f9d5-4585-bc99-3952d1f9d097","LastUpdated":"2016-07-14T15:55:10.85","URI":"http://www.playmapping.com/GetImage.ashx?g=2008984e-f9d5-4585-bc99-3952d1f9d097&w=350&h=350","Description":""},{"$id":"331","ID":"1e29b4bf-18a3-424b-91b7-a2a7a2c3f1aa","LastUpdated":"2010-07-06T18:52:31.587","URI":"http://www.playmapping.com/GetImage.ashx?g=1e29b4bf-18a3-424b-91b7-a2a7a2c3f1aa&w=350&h=350","Description":""}],"Documents":[{"$id":"332","ID":"398147cd-4673-4e81-aac6-0673d459baaa","LastUpdated":"2015-08-28T08:46:26.27","URI":"http://www.playmapping.com/DBStore/Documents/08b5dd68-8b5f-441c-b89e-dbc0ff95aee2/Drainage + valondergrond Speelplek kamperfoeliehof.pdf","Description":"Drainage + valondergrond Speelplek kamperfoeliehof"}]},{"$id":"333","ID":"d094c0bb-6fd9-4424-b4bb-5ea35cc91466","LastUpdated":"2016-06-16T09:28:31.637","Name":"02.22.04 Sytwinde 106/Rosarium","AddressLine1":"Sytwinde 106/Rosarium","Suburb":"Vrouwtjeslant/Nieuweveen","City":"Nootdorp","Area":"","PostCode":"2631 GV","Ref":"","AssetCount":13,"Lat":"52,04777","Lng":"4,399126","ChildLocations":[],"Images":[{"$id":"334","ID":"b1cb4cc4-ec04-49e4-af6a-02f3cf4df3cf","LastUpdated":"2016-09-22T12:13:23.043","URI":"http://www.playmapping.com/GetImage.ashx?g=b1cb4cc4-ec04-49e4-af6a-02f3cf4df3cf&w=350&h=350","Description":""},{"$id":"335","ID":"6b23ac92-8548-457e-9b20-5cc7f66cdfa0","LastUpdated":"2010-07-06T18:52:19.433","URI":"http://www.playmapping.com/GetImage.ashx?g=6b23ac92-8548-457e-9b20-5cc7f66cdfa0&w=350&h=350","Description":""},{"$id":"336","ID":"972747e2-abe3-4bfb-bee2-d4ba0ec95736","LastUpdated":"2016-09-22T12:28:10.123","URI":"http://www.playmapping.com/GetImage.ashx?g=972747e2-abe3-4bfb-bee2-d4ba0ec95736&w=350&h=350","Description":""}],"Documents":[]},{"$id":"337","ID":"6715946e-1653-4a98-9ab0-995d46eb5d17","LastUpdated":"2015-09-18T23:02:43.623","Name":"02.22.05 Sytwinde 158","AddressLine1":"Sytwinde 168","Suburb":"Vrouwtjeslant/Nieuweveen","City":"Nootdorp","Area":"","PostCode":"2631 GX","Ref":"","AssetCount":14,"Lat":"52,04988","Lng":"4,398685","ChildLocations":[],"Images":[{"$id":"338","ID":"7579aa89-6c91-470e-be09-6999cd7c0984","LastUpdated":"2014-04-09T12:44:48.49","URI":"http://www.playmapping.com/GetImage.ashx?g=7579aa89-6c91-470e-be09-6999cd7c0984&w=350&h=350","Description":""},{"$id":"339","ID":"4dc55340-6922-496c-8166-74bc66164cec","LastUpdated":"2014-04-09T14:12:51.547","URI":"http://www.playmapping.com/GetImage.ashx?g=4dc55340-6922-496c-8166-74bc66164cec&w=350&h=350","Description":""},{"$id":"340","ID":"956bb3a1-1ad6-4bb7-89f9-ec9e7929615a","LastUpdated":"2014-04-09T12:44:24.187","URI":"http://www.playmapping.com/GetImage.ashx?g=956bb3a1-1ad6-4bb7-89f9-ec9e7929615a&w=350&h=350","Description":""}],"Documents":[]},{"$id":"341","ID":"33656473-aaac-4225-98aa-a89bd4210785","LastUpdated":"2016-02-12T14:53:42.757","Name":"02.22.06 Zetveld 41","AddressLine1":"Zetveld 41","Suburb":"Vrouwtjeslant/Nieuweveen","City":"Nootdorp","Area":"","PostCode":"2632 AM","Ref":"","AssetCount":6,"Lat":"52,05108","Lng":"4,399318","ChildLocations":[],"Images":[{"$id":"342","ID":"cc361575-0548-4529-94b2-4463634373eb","LastUpdated":"2010-07-06T18:52:15.427","URI":"http://www.playmapping.com/GetImage.ashx?g=cc361575-0548-4529-94b2-4463634373eb&w=350&h=350","Description":""},{"$id":"343","ID":"46aa2158-8d4a-4020-8916-7f08212d937a","LastUpdated":"2011-09-20T12:22:44","URI":"http://www.playmapping.com/GetImage.ashx?g=46aa2158-8d4a-4020-8916-7f08212d937a&w=350&h=350","Description":""}],"Documents":[]},{"$id":"344","ID":"18176f98-1d10-4794-a613-0e25f7ef5a66","LastUpdated":"2015-09-18T23:02:42.65","Name":"02.22.07 Veenkamp 4","AddressLine1":"Veenkamp 4","Suburb":"Vrouwtjeslant/Nieuweveen","City":"Nootdorp","Area":"","PostCode":"2632 AL","Ref":"","AssetCount":4,"Lat":"52,05143","Lng":"4,401181","ChildLocations":[],"Images":[{"$id":"345","ID":"f7a2c2fe-9ed6-46fa-bbba-21406da392cb","LastUpdated":"2015-05-06T08:29:05.72","URI":"http://www.playmapping.com/GetImage.ashx?g=f7a2c2fe-9ed6-46fa-bbba-21406da392cb&w=350&h=350","Description":""},{"$id":"346","ID":"c134f3b1-ba2a-4b0f-8c92-2b4327c3a138","LastUpdated":"2016-01-25T15:23:11.557","URI":"http://www.playmapping.com/GetImage.ashx?g=c134f3b1-ba2a-4b0f-8c92-2b4327c3a138&w=350&h=350","Description":""},{"$id":"347","ID":"ce7064a1-8406-4f9c-818f-a65cebd85fdd","LastUpdated":"2010-07-06T18:52:31.943","URI":"http://www.playmapping.com/GetImage.ashx?g=ce7064a1-8406-4f9c-818f-a65cebd85fdd&w=350&h=350","Description":""}],"Documents":[]},{"$id":"348","ID":"6603b8d8-a600-463d-aded-cc620c1575a1","LastUpdated":"2015-09-18T23:02:43.61","Name":"02.22.08 Veenakker 38","AddressLine1":"Veenakker 38","Suburb":"Vrouwtjeslant/Nieuweveen","City":"Nootdorp","Area":"","PostCode":"2632 AJ","Ref":"","AssetCount":7,"Lat":"52,05","Lng":"4,40106","ChildLocations":[],"Images":[{"$id":"349","ID":"63ba17af-cb52-4322-9b1a-45645316b0ef","LastUpdated":"2016-04-06T09:55:07.423","URI":"http://www.playmapping.com/GetImage.ashx?g=63ba17af-cb52-4322-9b1a-45645316b0ef&w=350&h=350","Description":""},{"$id":"350","ID":"793396b3-3804-4001-9d81-4f92fa0ce8c2","LastUpdated":"2010-07-06T18:52:17.533","URI":"http://www.playmapping.com/GetImage.ashx?g=793396b3-3804-4001-9d81-4f92fa0ce8c2&w=350&h=350","Description":""},{"$id":"351","ID":"a7e019b9-3971-4713-9a02-9dfe654cef19","LastUpdated":"2016-01-25T15:30:37.027","URI":"http://www.playmapping.com/GetImage.ashx?g=a7e019b9-3971-4713-9a02-9dfe654cef19&w=350&h=350","Description":"Speelplek Veenakker"}],"Documents":[]},{"$id":"352","ID":"53f439f8-2d91-4cef-9654-2f1ca4d894c3","LastUpdated":"2015-09-18T23:02:43.39","Name":"02.22.09 Turfakker 2","AddressLine1":"Turfakker 2","Suburb":"Vrouwtjeslant/Nieuweveen","City":"Nootdorp","Area":"","PostCode":"2632 AG","Ref":"","AssetCount":10,"Lat":"52,05074","Lng":"4,403121","ChildLocations":[],"Images":[{"$id":"353","ID":"39acc3a6-e0d0-4735-a313-1fd43149b5b3","LastUpdated":"2010-07-06T18:52:07.74","URI":"http://www.playmapping.com/GetImage.ashx?g=39acc3a6-e0d0-4735-a313-1fd43149b5b3&w=350&h=350","Description":""},{"$id":"354","ID":"f53f5122-348e-4825-aa49-2606ffcfbc3a","LastUpdated":"2010-10-06T12:16:27","URI":"http://www.playmapping.com/GetImage.ashx?g=f53f5122-348e-4825-aa49-2606ffcfbc3a&w=350&h=350","Description":""},{"$id":"355","ID":"21e0847c-0e1a-4cbc-902e-71d700eb10ff","LastUpdated":"2016-01-25T15:17:36.717","URI":"http://www.playmapping.com/GetImage.ashx?g=21e0847c-0e1a-4cbc-902e-71d700eb10ff&w=350&h=350","Description":""}],"Documents":[]},{"$id":"356","ID":"bbbae422-6766-4b43-8a77-f800c0702a00","LastUpdated":"2016-02-12T14:54:12.747","Name":"02.22.10 Trapveld 42","AddressLine1":"Trapveld 42","Suburb":"Vrouwtjeslant/Nieuweveen","City":"Nootdorp","Area":"","PostCode":"2632 AD","Ref":"","AssetCount":6,"Lat":"52,04942","Lng":"4,402943","ChildLocations":[],"Images":[{"$id":"357","ID":"9956db4d-df60-43d9-b338-477b8f44958f","LastUpdated":"2010-10-06T12:30:14","URI":"http://www.playmapping.com/GetImage.ashx?g=9956db4d-df60-43d9-b338-477b8f44958f&w=350&h=350","Description":""},{"$id":"358","ID":"48a500ce-5cfd-41c4-b06d-63f1f8fcd872","LastUpdated":"2016-01-25T15:20:20.15","URI":"http://www.playmapping.com/GetImage.ashx?g=48a500ce-5cfd-41c4-b06d-63f1f8fcd872&w=350&h=350","Description":""},{"$id":"359","ID":"8f909982-51f9-4d6c-8dc7-ace639a8c8b0","LastUpdated":"2010-07-06T18:52:32.87","URI":"http://www.playmapping.com/GetImage.ashx?g=8f909982-51f9-4d6c-8dc7-ace639a8c8b0&w=350&h=350","Description":""}],"Documents":[]},{"$id":"360","ID":"d51eaed7-403d-4376-8515-a9179f0b8a07","LastUpdated":"2017-02-05T12:08:55.69","Name":"02.22.11 Trapveld 59 (trapveldje )","AddressLine1":"Trapveld 59","Suburb":"Vrouwtjeslant/Nieuweveen","City":"Nootdorp","Area":"","PostCode":"2632 AC","Ref":"","AssetCount":4,"Lat":"52,04919","Lng":"4,402138","ChildLocations":[],"Images":[{"$id":"361","ID":"ed76bfba-b2c3-4ed2-a355-1fa8e4c7945a","LastUpdated":"2010-07-06T18:52:07.647","URI":"http://www.playmapping.com/GetImage.ashx?g=ed76bfba-b2c3-4ed2-a355-1fa8e4c7945a&w=350&h=350","Description":""},{"$id":"362","ID":"d13ae30d-e553-4c10-b55c-e513f35287dc","LastUpdated":"2016-01-25T15:21:49.63","URI":"http://www.playmapping.com/GetImage.ashx?g=d13ae30d-e553-4c10-b55c-e513f35287dc&w=350&h=350","Description":""}],"Documents":[]}],"Images":[],"Documents":[]},{"$id":"363","ID":"f088b99d-7e2f-42d0-879e-20bd9842a648","LastUpdated":"2015-09-18T23:02:45.26","Name":"23 Achter het Raadhuis","AddressLine1":"","Suburb":"","City":"","Area":"","PostCode":"","Ref":"","AssetCount":0,"Lat":"0","Lng":"0","ChildLocations":[{"$id":"364","ID":"e626427a-ad23-4f87-a84c-068a01065257","LastUpdated":"2017-01-30T11:44:49.49","Name":"02.23.01 Lobelia 1","AddressLine1":"Lobelia 1","Suburb":"Achter het Raadhuis","City":"Nootdorp","Area":"","PostCode":"2631 VJ","Ref":"","AssetCount":2,"Lat":"52,03843","Lng":"4,403155","ChildLocations":[],"Images":[{"$id":"365","ID":"9c50eb3a-1526-499d-966f-9375c06a720c","LastUpdated":"2016-11-01T08:11:49.647","URI":"http://www.playmapping.com/GetImage.ashx?g=9c50eb3a-1526-499d-966f-9375c06a720c&w=350&h=350","Description":""},{"$id":"366","ID":"2d2eca7e-da5a-426b-bca5-944993d0395a","LastUpdated":"2010-07-06T18:52:29.097","URI":"http://www.playmapping.com/GetImage.ashx?g=2d2eca7e-da5a-426b-bca5-944993d0395a&w=350&h=350","Description":""},{"$id":"367","ID":"74d1a6a0-8cc9-41e1-b3b7-dab88aab1c73","LastUpdated":"2017-01-10T12:46:07.92","URI":"http://www.playmapping.com/GetImage.ashx?g=74d1a6a0-8cc9-41e1-b3b7-dab88aab1c73&w=350&h=350","Description":""}],"Documents":[]},{"$id":"368","ID":"8e44a410-e465-464a-a719-f093952204bc","LastUpdated":"2017-01-30T11:45:14.6","Name":"02.23.02 Pijlkruid 5","AddressLine1":"Pijlkruid 5","Suburb":"Achter het Raadhuis","City":"Nootdorp","Area":"","PostCode":"2631 VG","Ref":"","AssetCount":8,"Lat":"52,03879","Lng":"4,402535","ChildLocations":[],"Images":[{"$id":"369","ID":"9f5c6f28-874f-493d-b5af-2f69f9a58222","LastUpdated":"2016-09-27T08:27:50.313","URI":"http://www.playmapping.com/GetImage.ashx?g=9f5c6f28-874f-493d-b5af-2f69f9a58222&w=350&h=350","Description":""},{"$id":"370","ID":"51e16969-ada2-47e8-bbe6-a712fb3ccf33","LastUpdated":"2010-07-06T18:52:32.15","URI":"http://www.playmapping.com/GetImage.ashx?g=51e16969-ada2-47e8-bbe6-a712fb3ccf33&w=350&h=350","Description":""},{"$id":"371","ID":"79f72bb2-bc48-4ff8-92d3-af4638b8b074","LastUpdated":"2017-04-25T08:41:30.397","URI":"http://www.playmapping.com/GetImage.ashx?g=79f72bb2-bc48-4ff8-92d3-af4638b8b074&w=350&h=350","Description":""}],"Documents":[]},{"$id":"372","ID":"46239dab-71c7-4704-8429-7a2190e23ad6","LastUpdated":"2017-01-30T11:48:51.627","Name":"02.23.03 Zeedistel 5","AddressLine1":"Zeedistel 5","Suburb":"Achter het Raadhuis","City":"Nootdorp","Area":"","PostCode":"2631 TC","Ref":"","AssetCount":6,"Lat":"52,0398","Lng":"4,401252","ChildLocations":[],"Images":[{"$id":"373","ID":"7d645a5b-8e66-4eba-a76b-1ea5234f7138","LastUpdated":"2010-07-06T18:52:07.483","URI":"http://www.playmapping.com/GetImage.ashx?g=7d645a5b-8e66-4eba-a76b-1ea5234f7138&w=350&h=350","Description":""},{"$id":"374","ID":"e8a3a4b7-3082-41d1-b346-7c29b2b6eeba","LastUpdated":"2016-04-12T09:44:22.347","URI":"http://www.playmapping.com/GetImage.ashx?g=e8a3a4b7-3082-41d1-b346-7c29b2b6eeba&w=350&h=350","Description":""}],"Documents":[]},{"$id":"375","ID":"9b869a9c-9e29-4cda-8358-1c8ab37d9a65","LastUpdated":"2017-01-30T11:48:34.62","Name":"02.23.04 Kattestaart 1","AddressLine1":"Kattestaart 1","Suburb":"Achter het Raadhuis","City":"Nootdorp","Area":"","PostCode":"2631 VE","Ref":"","AssetCount":8,"Lat":"52,04013","Lng":"4,40345","ChildLocations":[],"Images":[{"$id":"376","ID":"d70b117b-5e8b-40fd-aac5-d74ef2ea285d","LastUpdated":"2010-07-06T18:52:37.93","URI":"http://www.playmapping.com/GetImage.ashx?g=d70b117b-5e8b-40fd-aac5-d74ef2ea285d&w=350&h=350","Description":""}],"Documents":[]},{"$id":"377","ID":"4d01451a-0781-4677-afd5-5dfb5064e646","LastUpdated":"2017-04-25T09:15:15.073","Name":"02.23.05 Bromelia 23","AddressLine1":"Bromelia 23","Suburb":"Achter het Raadhuis","City":"Nootdorp","Area":"","PostCode":"2631 VL","Ref":"","AssetCount":6,"Lat":"52,04","Lng":"4,406298","ChildLocations":[],"Images":[{"$id":"378","ID":"712c4d11-a427-4d75-846b-6fb84704f611","LastUpdated":"2014-05-06T06:53:33.89","URI":"http://www.playmapping.com/GetImage.ashx?g=712c4d11-a427-4d75-846b-6fb84704f611&w=350&h=350","Description":""},{"$id":"379","ID":"66b97009-293f-400d-8a10-928a20ce6fc0","LastUpdated":"2010-07-06T18:52:28.523","URI":"http://www.playmapping.com/GetImage.ashx?g=66b97009-293f-400d-8a10-928a20ce6fc0&w=350&h=350","Description":""}],"Documents":[]},{"$id":"380","ID":"c68abe53-04b4-400c-be4a-d87d6fbcd31f","LastUpdated":"2017-01-30T11:46:42.47","Name":"02.23.06 Akelei 13","AddressLine1":"Akelei 13","Suburb":"Achter het Raadhuis","City":"Nootdorp","Area":"","PostCode":"2631 VP","Ref":"","AssetCount":4,"Lat":"52,0407","Lng":"4,406896","ChildLocations":[],"Images":[{"$id":"381","ID":"fd6c5bc2-0594-4654-9ee7-ae5a65e613f2","LastUpdated":"2010-07-06T18:52:33.01","URI":"http://www.playmapping.com/GetImage.ashx?g=fd6c5bc2-0594-4654-9ee7-ae5a65e613f2&w=350&h=350","Description":""}],"Documents":[]},{"$id":"382","ID":"a40600b1-1236-4afb-a89c-f77a6b2c9d08","LastUpdated":"2017-01-30T11:48:08.327","Name":"02.23.07 Duizendschoon 24","AddressLine1":"Duizendschoon 24","Suburb":"Achter het Raadhuis","City":"Nootdorp","Area":"","PostCode":"2631 VW","Ref":"","AssetCount":2,"Lat":"52,04215","Lng":"4,405524","ChildLocations":[],"Images":[{"$id":"383","ID":"263a7821-a18d-4942-8534-65eb20f3ddc8","LastUpdated":"2010-07-06T18:52:21.45","URI":"http://www.playmapping.com/GetImage.ashx?g=263a7821-a18d-4942-8534-65eb20f3ddc8&w=350&h=350","Description":""}],"Documents":[]},{"$id":"384","ID":"0e1c17b5-7f89-4cb4-bd8d-b642ee946eb9","LastUpdated":"2017-01-30T11:50:01.8","Name":"02.23.08 Ereprijs 15","AddressLine1":"Ereprijs 15","Suburb":"Achter het Raadhuis","City":"Nootdorp","Area":"","PostCode":"2631 TT","Ref":"","AssetCount":4,"Lat":"52,04263","Lng":"4,404157","ChildLocations":[],"Images":[{"$id":"385","ID":"62e78760-0b40-4b36-8b8b-1a98af66c923","LastUpdated":"2010-07-06T18:52:06.16","URI":"http://www.playmapping.com/GetImage.ashx?g=62e78760-0b40-4b36-8b8b-1a98af66c923&w=350&h=350","Description":""}],"Documents":[]},{"$id":"386","ID":"84f4892a-6d81-482d-9f5a-191c3a7ecb60","LastUpdated":"2017-01-30T11:51:09.4","Name":"02.23.09 Vrouwenmantel 9","AddressLine1":"Vrouwenmantel 9","Suburb":"Achter het Raadhuis","City":"Nootdorp","Area":"","PostCode":"2631 WD","Ref":"","AssetCount":8,"Lat":"52,04323","Lng":"4,403362","ChildLocations":[],"Images":[{"$id":"387","ID":"cfea203a-2d4d-4773-9ae8-197cc0ac0c14","LastUpdated":"2010-07-06T18:52:05.473","URI":"http://www.playmapping.com/GetImage.ashx?g=cfea203a-2d4d-4773-9ae8-197cc0ac0c14&w=350&h=350","Description":""},{"$id":"388","ID":"322d1655-cdda-475e-a2a7-a3f1ded6208c","LastUpdated":"2010-10-06T10:21:56","URI":"http://www.playmapping.com/GetImage.ashx?g=322d1655-cdda-475e-a2a7-a3f1ded6208c&w=350&h=350","Description":""}],"Documents":[]},{"$id":"389","ID":"a561e819-cffa-4371-89da-925651f560a9","LastUpdated":"2015-09-18T23:02:44.3","Name":"02.23.10 Jacobsladder 1","AddressLine1":"Jacobsladder 1","Suburb":"Achter het Raadhuis","City":"Nootdorp","Area":"","PostCode":"2631 WG","Ref":"","AssetCount":4,"Lat":"52,04388","Lng":"4,404731","ChildLocations":[],"Images":[{"$id":"390","ID":"cbb735b4-1839-4ffb-909b-fbaefdcff822","LastUpdated":"2010-07-06T18:52:42.95","URI":"http://www.playmapping.com/GetImage.ashx?g=cbb735b4-1839-4ffb-909b-fbaefdcff822&w=350&h=350","Description":""}],"Documents":[]},{"$id":"391","ID":"3e7c9756-7e63-4cbb-b1df-4cd21b26ac23","LastUpdated":"2017-01-30T11:50:56.49","Name":"02.23.11 Zonnekruid 18","AddressLine1":"Zonnekruid 18","Suburb":"Achter het Raadhuis","City":"Nootdorp","Area":"","PostCode":"2631 WE","Ref":"","AssetCount":4,"Lat":"52,04449","Lng":"4,404024","ChildLocations":[],"Images":[{"$id":"392","ID":"c9627c1c-a205-485c-aa76-d5a8ba6ad7a7","LastUpdated":"2010-07-06T18:52:37.587","URI":"http://www.playmapping.com/GetImage.ashx?g=c9627c1c-a205-485c-aa76-d5a8ba6ad7a7&w=350&h=350","Description":""}],"Documents":[]},{"$id":"393","ID":"1c60330a-19b6-40c8-8d64-73cddaf24170","LastUpdated":"2017-01-30T11:53:06.867","Name":"02.23.12 Krabbescheer 4","AddressLine1":"Krabbescheer 4","Suburb":"Achter het Raadhuis","City":"Nootdorp","Area":"","PostCode":"2631 DW","Ref":"","AssetCount":16,"Lat":"52,04443","Lng":"4,400074","ChildLocations":[],"Images":[{"$id":"394","ID":"3a4c6f6e-2488-4aa5-a366-01657b43cf4e","LastUpdated":"2016-04-12T08:19:52.28","URI":"http://www.playmapping.com/GetImage.ashx?g=3a4c6f6e-2488-4aa5-a366-01657b43cf4e&w=350&h=350","Description":""},{"$id":"395","ID":"2a0389a6-91d7-48f4-9d80-9daf69774513","LastUpdated":"2017-04-25T06:25:12.8","URI":"http://www.playmapping.com/GetImage.ashx?g=2a0389a6-91d7-48f4-9d80-9daf69774513&w=350&h=350","Description":""},{"$id":"396","ID":"7959d0e2-4577-4a63-b526-dffa6298d0b4","LastUpdated":"2010-07-06T18:52:39.267","URI":"http://www.playmapping.com/GetImage.ashx?g=7959d0e2-4577-4a63-b526-dffa6298d0b4&w=350&h=350","Description":""}],"Documents":[]},{"$id":"397","ID":"c67e791a-2650-4e00-8812-a8dbbd78810e","LastUpdated":"2017-01-30T11:53:28.577","Name":"02.23.13 Lisdodde 10","AddressLine1":"Lisdodde 10","Suburb":"Achter het Raadhuis","City":"Nootdorp","Area":"","PostCode":"2631 DJ","Ref":"","AssetCount":8,"Lat":"52,04363","Lng":"4,400086","ChildLocations":[],"Images":[{"$id":"398","ID":"7622fef4-8718-4c65-87fc-ba66ad0a2b9e","LastUpdated":"2010-07-06T18:52:34.553","URI":"http://www.playmapping.com/GetImage.ashx?g=7622fef4-8718-4c65-87fc-ba66ad0a2b9e&w=350&h=350","Description":""},{"$id":"399","ID":"a00ddaf2-e991-4c40-a985-f6b139fbcb06","LastUpdated":"2016-04-12T07:45:58.577","URI":"http://www.playmapping.com/GetImage.ashx?g=a00ddaf2-e991-4c40-a985-f6b139fbcb06&w=350&h=350","Description":""}],"Documents":[]},{"$id":"400","ID":"343c55df-fdb9-43ad-99d8-8de2a1a42fdc","LastUpdated":"2017-01-30T11:54:23.46","Name":"02.23.14 Ganzerik 1","AddressLine1":"Ganzerik 1","Suburb":"Achter het Raadhuis","City":"Nootdorp","Area":"","PostCode":"2631 DG","Ref":"","AssetCount":6,"Lat":"52,04327","Lng":"4,398098","ChildLocations":[],"Images":[{"$id":"401","ID":"e7d9f18e-6b66-471e-90b9-02bfa6228317","LastUpdated":"2010-07-06T18:52:00.77","URI":"http://www.playmapping.com/GetImage.ashx?g=e7d9f18e-6b66-471e-90b9-02bfa6228317&w=350&h=350","Description":""},{"$id":"402","ID":"e76981ea-e550-4441-924f-71668bcbf5bb","LastUpdated":"2016-04-12T07:41:42.7","URI":"http://www.playmapping.com/GetImage.ashx?g=e76981ea-e550-4441-924f-71668bcbf5bb&w=350&h=350","Description":""}],"Documents":[]},{"$id":"403","ID":"03f99736-f057-491d-8380-36de6c5efaaa","LastUpdated":"2017-01-30T11:54:04.33","Name":"02.23.15 Zegge 13","AddressLine1":"Zegge 13","Suburb":"Achter het Raadhuis","City":"Nootdorp","Area":"","PostCode":"2631 DK","Ref":"","AssetCount":10,"Lat":"52,04286","Lng":"4,396986","ChildLocations":[],"Images":[{"$id":"404","ID":"03f4cb6c-7676-4e56-9c66-58509812bc44","LastUpdated":"2017-01-10T12:16:20.857","URI":"http://www.playmapping.com/GetImage.ashx?g=03f4cb6c-7676-4e56-9c66-58509812bc44&w=350&h=350","Description":""},{"$id":"405","ID":"fc752640-c54e-4082-a9b9-61425186e9ee","LastUpdated":"2010-07-06T18:52:20.303","URI":"http://www.playmapping.com/GetImage.ashx?g=fc752640-c54e-4082-a9b9-61425186e9ee&w=350&h=350","Description":""}],"Documents":[]},{"$id":"406","ID":"7c498b7a-5f1c-4a68-93f0-0da512a9875f","LastUpdated":"2017-01-30T11:51:44.23","Name":"02.23.16 Dravik 14","AddressLine1":"Dravik 14","Suburb":"Achter het Raadhuis","City":"Nootdorp","Area":"","PostCode":"2631 DN","Ref":"","AssetCount":2,"Lat":"52,04173","Lng":"4,39838","ChildLocations":[],"Images":[{"$id":"407","ID":"a18f1588-ca78-47a9-a15c-554e4dd72153","LastUpdated":"2017-01-10T12:24:55.06","URI":"http://www.playmapping.com/GetImage.ashx?g=a18f1588-ca78-47a9-a15c-554e4dd72153&w=350&h=350","Description":""},{"$id":"408","ID":"761a1ae1-6c67-49c5-be48-efdf6c6d6396","LastUpdated":"2010-07-06T18:52:41.207","URI":"http://www.playmapping.com/GetImage.ashx?g=761a1ae1-6c67-49c5-be48-efdf6c6d6396&w=350&h=350","Description":""}],"Documents":[]},{"$id":"409","ID":"506531bf-1c9d-4986-b233-17178a50ac7b","LastUpdated":"2017-01-30T11:50:33.29","Name":"02.23.17 Rolklaver 2","AddressLine1":"Rolklaver 2\r\nNootdorp","Suburb":"Achter het Raadhuis","City":"Nootdorp","Area":"","PostCode":"2631 SN","Ref":"","AssetCount":2,"Lat":"52,04262","Lng":"4,400799","ChildLocations":[],"Images":[{"$id":"410","ID":"8c217b54-5212-4ef5-90da-17531c73b0ff","LastUpdated":"2010-07-06T18:52:04.97","URI":"http://www.playmapping.com/GetImage.ashx?g=8c217b54-5212-4ef5-90da-17531c73b0ff&w=350&h=350","Description":""},{"$id":"411","ID":"0e9b3306-b8d5-4a49-84c1-5bd4254422f6","LastUpdated":"2016-04-12T08:40:10.983","URI":"http://www.playmapping.com/GetImage.ashx?g=0e9b3306-b8d5-4a49-84c1-5bd4254422f6&w=350&h=350","Description":""}],"Documents":[]},{"$id":"412","ID":"fab55077-5024-46de-b60f-d91cb9af0d27","LastUpdated":"2017-01-30T11:49:39.68","Name":"02.23.18 Wolverlei 2","AddressLine1":"Wolverlei 2","Suburb":"Achter het Raadhuis","City":"Nootdorp","Area":"","PostCode":"2631 SJ","Ref":"","AssetCount":22,"Lat":"52,04149","Lng":"4,400663","ChildLocations":[],"Images":[{"$id":"413","ID":"1564ece7-1804-4df9-afb8-09f5f9d6baba","LastUpdated":"2010-07-06T18:52:02.073","URI":"http://www.playmapping.com/GetImage.ashx?g=1564ece7-1804-4df9-afb8-09f5f9d6baba&w=350&h=350","Description":""}],"Documents":[]},{"$id":"414","ID":"9f89e6e7-626b-4776-b58a-f43b021e7ef4","LastUpdated":"2017-01-30T11:52:29.287","Name":"02.23.19 Tormentil 33","AddressLine1":"Tormentil 33","Suburb":"Achter het Raadhuis","City":"Nootdorp","Area":"","PostCode":"2631 DD","Ref":"","AssetCount":4,"Lat":"52,0412","Lng":"4,396454","ChildLocations":[],"Images":[{"$id":"415","ID":"ba3f7a44-ddd9-4b0e-aa46-6435e453ced2","LastUpdated":"2010-07-06T18:52:20.98","URI":"http://www.playmapping.com/GetImage.ashx?g=ba3f7a44-ddd9-4b0e-aa46-6435e453ced2&w=350&h=350","Description":""},{"$id":"416","ID":"a17042a4-be8c-4c02-9091-c40187a2488c","LastUpdated":"2016-04-12T11:27:58.443","URI":"http://www.playmapping.com/GetImage.ashx?g=a17042a4-be8c-4c02-9091-c40187a2488c&w=350&h=350","Description":""}],"Documents":[]},{"$id":"417","ID":"4019e621-9f21-4d26-8f30-a2b3663bc392","LastUpdated":"2017-01-30T11:49:19.2","Name":"02.23.20 Zonnedauw 4","AddressLine1":"Zonnedauw 4","Suburb":"Achter het Raadhuis","City":"Nootdorp","Area":"","PostCode":"2631 SL","Ref":"","AssetCount":6,"Lat":"52,03993","Lng":"4,398491","ChildLocations":[],"Images":[{"$id":"418","ID":"a1af6ee3-6d81-44c0-b547-cba717e6e190","LastUpdated":"2010-07-06T18:52:36.073","URI":"http://www.playmapping.com/GetImage.ashx?g=a1af6ee3-6d81-44c0-b547-cba717e6e190&w=350&h=350","Description":""},{"$id":"419","ID":"deacbcd4-637f-4207-86c4-fc7f1f0dc410","LastUpdated":"2016-04-12T11:22:29.957","URI":"http://www.playmapping.com/GetImage.ashx?g=deacbcd4-637f-4207-86c4-fc7f1f0dc410&w=350&h=350","Description":""}],"Documents":[]}],"Images":[],"Documents":[]},{"$id":"420","ID":"e78f61bb-f79e-4e83-a874-66dbcd5b0353","LastUpdated":"2015-09-18T23:02:45.103","Name":"24  's-Gravenhout","AddressLine1":"","Suburb":"","City":"","Area":"","PostCode":"","Ref":"","AssetCount":0,"Lat":"0","Lng":"0","ChildLocations":[{"$id":"421","ID":"19a8751b-a9ac-4ffe-adc3-f75f9fba128f","LastUpdated":"2015-09-18T23:02:42.673","Name":"02.24.01 Hof van Rijnsburg 44","AddressLine1":"Hof van Rijnsburg 44","Suburb":"'s-Gravenhout","City":"Nootdorp","Area":"","PostCode":"2631 XB","Ref":"","AssetCount":8,"Lat":"52,04655","Lng":"4,412948","ChildLocations":[],"Images":[{"$id":"422","ID":"3ce94552-b4cd-40c5-b6a7-4e70fc87230a","LastUpdated":"2010-07-06T18:52:17.21","URI":"http://www.playmapping.com/GetImage.ashx?g=3ce94552-b4cd-40c5-b6a7-4e70fc87230a&w=350&h=350","Description":""}],"Documents":[]},{"$id":"423","ID":"f6b35891-91c3-47a2-a4fe-9fa0d71d47b3","LastUpdated":"2015-09-18T23:02:45.32","Name":"02.24.02 Laan van 's Gravenhout 2","AddressLine1":"Laan van 's Gravenhout 2","Suburb":"'s-Gravenhout","City":"Nootdorp","Area":"","PostCode":"2631 WS","Ref":"","AssetCount":14,"Lat":"52,04553","Lng":"4,413196","ChildLocations":[],"Images":[{"$id":"424","ID":"f9fcc71c-ffcd-4dd8-8009-cac6848dbbda","LastUpdated":"2017-04-25T10:31:16.45","URI":"http://www.playmapping.com/GetImage.ashx?g=f9fcc71c-ffcd-4dd8-8009-cac6848dbbda&w=350&h=350","Description":""},{"$id":"425","ID":"1e55b21f-5d99-4dd8-9963-d3fe596f550b","LastUpdated":"2010-07-06T18:52:37.48","URI":"http://www.playmapping.com/GetImage.ashx?g=1e55b21f-5d99-4dd8-9963-d3fe596f550b&w=350&h=350","Description":""}],"Documents":[]},{"$id":"426","ID":"f3d741c1-772d-4c8a-b324-6681b91aee2a","LastUpdated":"2015-09-18T23:02:45.293","Name":"02.24.03 Hof van Leiden 51","AddressLine1":"Hof van Leiden 51","Suburb":"'s-Gravenhout","City":"Nootdorp","Area":"","PostCode":"2631 XG","Ref":"","AssetCount":12,"Lat":"52,04465","Lng":"4,412729","ChildLocations":[],"Images":[{"$id":"427","ID":"17aac011-32c5-4c3f-8474-43ab4757b8f5","LastUpdated":"2016-05-27T09:59:53.767","URI":"http://www.playmapping.com/GetImage.ashx?g=17aac011-32c5-4c3f-8474-43ab4757b8f5&w=350&h=350","Description":""},{"$id":"428","ID":"5bb50345-64cc-4665-b9e4-7dc35be56b54","LastUpdated":"2010-07-06T18:52:25.327","URI":"http://www.playmapping.com/GetImage.ashx?g=5bb50345-64cc-4665-b9e4-7dc35be56b54&w=350&h=350","Description":""},{"$id":"429","ID":"077881e4-a601-4478-a6df-f8abe7efc58d","LastUpdated":"2016-04-12T12:09:36.927","URI":"http://www.playmapping.com/GetImage.ashx?g=077881e4-a601-4478-a6df-f8abe7efc58d&w=350&h=350","Description":""}],"Documents":[]},{"$id":"430","ID":"ee3130f3-b071-4481-815f-4d0d9c8ca5eb","LastUpdated":"2015-09-18T23:02:45.223","Name":"02.24.04 Hof van Wassenaer 35","AddressLine1":"Hof van Wassenaer 35","Suburb":"'s-Gravenhout","City":"Nootdorp","Area":"","PostCode":"2631 XH","Ref":"","AssetCount":4,"Lat":"52,04294","Lng":"4,413034","ChildLocations":[],"Images":[{"$id":"431","ID":"224f6c07-ad44-4bf9-aa39-c4434d2aead3","LastUpdated":"2010-07-06T18:52:35.53","URI":"http://www.playmapping.com/GetImage.ashx?g=224f6c07-ad44-4bf9-aa39-c4434d2aead3&w=350&h=350","Description":""}],"Documents":[]},{"$id":"432","ID":"0a4ebde0-721b-43cb-a495-7b043c0e8d3c","LastUpdated":"2015-09-18T23:02:42.473","Name":"02.24.05 Hof van Leiden 21","AddressLine1":"Hof van Leiden 21","Suburb":"'s-Gravenhout","City":"Nootdorp","Area":"","PostCode":"2631XG","Ref":"","AssetCount":4,"Lat":"52,04353","Lng":"4,410104","ChildLocations":[],"Images":[{"$id":"433","ID":"27845c43-b2a0-4bab-983e-a0524de62899","LastUpdated":"2010-07-06T18:52:31.25","URI":"http://www.playmapping.com/GetImage.ashx?g=27845c43-b2a0-4bab-983e-a0524de62899&w=350&h=350","Description":""},{"$id":"434","ID":"38c066e7-08a3-49ff-81c1-f3beb8ab1ac0","LastUpdated":"2016-05-27T10:11:16.72","URI":"http://www.playmapping.com/GetImage.ashx?g=38c066e7-08a3-49ff-81c1-f3beb8ab1ac0&w=350&h=350","Description":""}],"Documents":[]},{"$id":"435","ID":"96f74267-3969-46b3-8ed8-e7914ca0511b","LastUpdated":"2015-09-18T23:02:44.117","Name":"02.24.06 Hof van Brasser 43","AddressLine1":"Hof van Brasser 43","Suburb":"'s-Gravenhout","City":"Nootdorp","Area":"","PostCode":"2631 WZ","Ref":"","AssetCount":2,"Lat":"52,04111","Lng":"4,410163","ChildLocations":[],"Images":[{"$id":"436","ID":"239c9f4e-6d2a-4eab-ae3d-f3125d67bdb0","LastUpdated":"2010-07-06T18:52:41.97","URI":"http://www.playmapping.com/GetImage.ashx?g=239c9f4e-6d2a-4eab-ae3d-f3125d67bdb0&w=350&h=350","Description":""}],"Documents":[]},{"$id":"437","ID":"48d3c09e-5b83-43e2-9630-b965d04b20ff","LastUpdated":"2015-09-18T23:02:43.24","Name":"02.24.07 Laan van Floris de Vijfde / De Poort","AddressLine1":"Laan van Floris de Vijfde 1","Suburb":"'s Gravenhout","City":"Nootdorp","Area":"","PostCode":"2631 WL","Ref":"","AssetCount":12,"Lat":"52,04818","Lng":"4,410022","ChildLocations":[],"Images":[{"$id":"438","ID":"97b8afcb-cc77-4368-a42e-3889ba9fe8ce","LastUpdated":"2015-01-12T13:33:04.18","URI":"http://www.playmapping.com/GetImage.ashx?g=97b8afcb-cc77-4368-a42e-3889ba9fe8ce&w=350&h=350","Description":""},{"$id":"439","ID":"1dc085a5-efad-4ddc-91d9-3f557549ee70","LastUpdated":"2015-05-06T08:06:41.933","URI":"http://www.playmapping.com/GetImage.ashx?g=1dc085a5-efad-4ddc-91d9-3f557549ee70&w=350&h=350","Description":""},{"$id":"440","ID":"158d7078-6bd3-46a3-9e6e-fd7ef04964a1","LastUpdated":"2016-04-12T12:34:55.773","URI":"http://www.playmapping.com/GetImage.ashx?g=158d7078-6bd3-46a3-9e6e-fd7ef04964a1&w=350&h=350","Description":""}],"Documents":[]}],"Images":[],"Documents":[]},{"$id":"441","ID":"a1b7c72c-4666-49b2-9804-0dbc88200f8f","LastUpdated":"2017-02-07T15:54:56.58","Name":"25 De Venen Centrum","AddressLine1":"","Suburb":"","City":"","Area":"","PostCode":"","Ref":"","AssetCount":0,"Lat":"0","Lng":"0","ChildLocations":[{"$id":"442","ID":"2cd120fc-1393-4835-8864-366c3a2c8247","LastUpdated":"2017-02-07T16:06:51.26","Name":"02.25.01 Operatie Mannahof 15","AddressLine1":"Operatie Mannahof 15","Suburb":"De Venen Centrum","City":"Nootdorp","Area":"","PostCode":"2632 EL","Ref":"","AssetCount":8,"Lat":"52,04624","Lng":"4,389855","ChildLocations":[],"Images":[{"$id":"443","ID":"d969495a-2b50-476e-b4e4-ce13864c7723","LastUpdated":"2010-07-06T18:52:36.473","URI":"http://www.playmapping.com/GetImage.ashx?g=d969495a-2b50-476e-b4e4-ce13864c7723&w=350&h=350","Description":""}],"Documents":[]},{"$id":"444","ID":"8edad243-437a-4951-86eb-5893b648bcf6","LastUpdated":"2017-02-07T16:07:01.65","Name":"02.25.02 Dokter Bakkerenlaan 12","AddressLine1":"Dokter Bakkerenlaan 12","Suburb":"De Venen Centrum","City":"Pijnacker","Area":"","PostCode":"2631 EV","Ref":"","AssetCount":2,"Lat":"52,04207","Lng":"4,386038","ChildLocations":[],"Images":[{"$id":"445","ID":"90e863ff-1e5e-4268-9721-31b139c048a8","LastUpdated":"2010-07-06T18:52:12.787","URI":"http://www.playmapping.com/GetImage.ashx?g=90e863ff-1e5e-4268-9721-31b139c048a8&w=350&h=350","Description":""},{"$id":"446","ID":"b2e92ab0-91e3-4bdc-8e5d-7184fa919d60","LastUpdated":"2015-11-06T11:05:03.487","URI":"http://www.playmapping.com/GetImage.ashx?g=b2e92ab0-91e3-4bdc-8e5d-7184fa919d60&w=350&h=350","Description":""}],"Documents":[]},{"$id":"447","ID":"3995178b-9648-4771-a73c-6e21da8c5e7e","LastUpdated":"2017-02-07T16:07:13.87","Name":"02.25.03 Schiphollaan 52","AddressLine1":"Schipholaan 52","Suburb":"De Venen Centrum","City":"Nootdorp","Area":"","PostCode":"2631 MP","Ref":"","AssetCount":4,"Lat":"52,04385","Lng":"4,382152","ChildLocations":[],"Images":[{"$id":"448","ID":"a3bd5590-99e0-4835-90a5-79691b3ce75e","LastUpdated":"2016-04-05T11:54:37.01","URI":"http://www.playmapping.com/GetImage.ashx?g=a3bd5590-99e0-4835-90a5-79691b3ce75e&w=350&h=350","Description":""},{"$id":"449","ID":"4ba49db7-0b7f-4191-8c2c-db208695a094","LastUpdated":"2011-09-19T10:54:11","URI":"http://www.playmapping.com/GetImage.ashx?g=4ba49db7-0b7f-4191-8c2c-db208695a094&w=350&h=350","Description":""}],"Documents":[]},{"$id":"450","ID":"b0ffca82-c141-49c7-a432-957aef20a13f","LastUpdated":"2017-02-07T16:07:24.497","Name":"02.25.04 Zustershof 29","AddressLine1":"Zustershof 29","Suburb":"De Venen Centrum","City":"Nootdorp","Area":"","PostCode":"2632 DN","Ref":"","AssetCount":4,"Lat":"52,04644","Lng":"4,385764","ChildLocations":[],"Images":[{"$id":"451","ID":"9a8ab0fc-f536-4a7d-9d6c-f452220d42aa","LastUpdated":"2010-07-06T18:52:42.1","URI":"http://www.playmapping.com/GetImage.ashx?g=9a8ab0fc-f536-4a7d-9d6c-f452220d42aa&w=350&h=350","Description":""}],"Documents":[]},{"$id":"452","ID":"4f71aef7-deba-4dd4-84bc-b927a6a4a99e","LastUpdated":"2017-02-07T16:07:36.93","Name":"02.25.05 Friendshipring 1-13","AddressLine1":"Friendshipring 1-13","Suburb":"De Venen Centrum","City":"Nootdorp","Area":"","PostCode":"2631 MH","Ref":"","AssetCount":8,"Lat":"52,04372","Lng":"4,378312","ChildLocations":[],"Images":[{"$id":"453","ID":"1f4d0941-ebee-4216-a821-120985560ae5","LastUpdated":"2010-07-06T18:52:03.993","URI":"http://www.playmapping.com/GetImage.ashx?g=1f4d0941-ebee-4216-a821-120985560ae5&w=350&h=350","Description":""},{"$id":"454","ID":"92c6db4d-db56-41c3-8aa7-43d8527691b3","LastUpdated":"2016-04-05T11:46:07.743","URI":"http://www.playmapping.com/GetImage.ashx?g=92c6db4d-db56-41c3-8aa7-43d8527691b3&w=350&h=350","Description":""}],"Documents":[]},{"$id":"455","ID":"71cd786c-63a4-4563-ae6e-34c6a3a80343","LastUpdated":"2017-02-07T16:07:50.6","Name":"02.25.06 Soesterberghof 212","AddressLine1":"Soesterberghof 212","Suburb":"De Venen Centrum","City":"Nootdorp","Area":"","PostCode":"2631 LJ","Ref":"","AssetCount":6,"Lat":"52,04526","Lng":"4,380025","ChildLocations":[],"Images":[{"$id":"456","ID":"5727899a-c54b-4c95-863a-443d032c2372","LastUpdated":"2010-07-06T18:52:15.393","URI":"http://www.playmapping.com/GetImage.ashx?g=5727899a-c54b-4c95-863a-443d032c2372&w=350&h=350","Description":""},{"$id":"457","ID":"f8ffc3b7-0811-4d3b-9569-541772260723","LastUpdated":"2017-04-24T10:10:26.173","URI":"http://www.playmapping.com/GetImage.ashx?g=f8ffc3b7-0811-4d3b-9569-541772260723&w=350&h=350","Description":""}],"Documents":[]},{"$id":"458","ID":"e8abd4fb-5e6c-4cf3-9d75-b5e5bf605f38","LastUpdated":"2017-02-07T16:08:03.357","Name":"02.25.07 Soesterberghof 18","AddressLine1":"Soesterberghof 18","Suburb":"De Venen Centrum","City":"Nootdorp","Area":"","PostCode":"2631 LH","Ref":"","AssetCount":6,"Lat":"52,04478","Lng":"4,381536","ChildLocations":[],"Images":[{"$id":"459","ID":"63cf2246-9eb3-4d38-91b8-e13524454efc","LastUpdated":"2010-07-06T18:52:39.33","URI":"http://www.playmapping.com/GetImage.ashx?g=63cf2246-9eb3-4d38-91b8-e13524454efc&w=350&h=350","Description":""}],"Documents":[]},{"$id":"460","ID":"acf11672-474e-4555-9166-9c89ebeb9b1a","LastUpdated":"2017-02-07T16:12:32.02","Name":"02.25.08 Woensdrechthof 106","AddressLine1":"Woensdrechthof 106","Suburb":"De Venen Centrum","City":"Nootdorp","Area":"","PostCode":"2631LD","Ref":"","AssetCount":6,"Lat":"52,04595","Lng":"4,381239","ChildLocations":[],"Images":[{"$id":"461","ID":"ff6bdfc9-5864-4608-81e0-48db95675c2c","LastUpdated":"2016-04-05T12:51:59.057","URI":"http://www.playmapping.com/GetImage.ashx?g=ff6bdfc9-5864-4608-81e0-48db95675c2c&w=350&h=350","Description":""},{"$id":"462","ID":"d938238a-ede0-4914-a4a1-4b841772f0f2","LastUpdated":"2013-04-18T10:17:07.947","URI":"http://www.playmapping.com/GetImage.ashx?g=d938238a-ede0-4914-a4a1-4b841772f0f2&w=350&h=350","Description":""}],"Documents":[]},{"$id":"463","ID":"75295f77-62e5-4f38-9b28-9b6bb6f487c3","LastUpdated":"2017-02-07T16:12:42.343","Name":"02.25.09 Woensdrechthof 56","AddressLine1":"Woensdrechthof 56","Suburb":"De Venen Centrum","City":"Pijnacker","Area":"","PostCode":"2631 LD","Ref":"","AssetCount":8,"Lat":"52,0456","Lng":"4,382888","ChildLocations":[],"Images":[{"$id":"464","ID":"eeb6820f-a337-46f1-8d54-44ab2ed781bc","LastUpdated":"2013-04-18T10:01:48.887","URI":"http://www.playmapping.com/GetImage.ashx?g=eeb6820f-a337-46f1-8d54-44ab2ed781bc&w=350&h=350","Description":""},{"$id":"465","ID":"7cfef1eb-35bf-4393-8df2-a30c7e95d078","LastUpdated":"2015-04-30T11:19:51.613","URI":"http://www.playmapping.com/GetImage.ashx?g=7cfef1eb-35bf-4393-8df2-a30c7e95d078&w=350&h=350","Description":""}],"Documents":[]},{"$id":"466","ID":"095c0bca-e179-4c9e-99f6-82d93dde8677","LastUpdated":"2017-02-07T16:12:54.16","Name":"02.25.10 Gilze-Rijenhof 26","AddressLine1":"Gilze -Rijenhof 26","Suburb":"De Venen Centrum","City":"Nootdorp","Area":"","PostCode":"2631 LA","Ref":"","AssetCount":8,"Lat":"52,04701","Lng":"4,382704","ChildLocations":[],"Images":[{"$id":"467","ID":"1da8ddd4-4014-4f5e-9ed3-d29946645253","LastUpdated":"2010-07-06T18:52:37.2","URI":"http://www.playmapping.com/GetImage.ashx?g=1da8ddd4-4014-4f5e-9ed3-d29946645253&w=350&h=350","Description":""},{"$id":"468","ID":"d485eb3d-b39f-4122-bb2d-d30fb6b8fdbe","LastUpdated":"2015-04-30T10:47:08.477","URI":"http://www.playmapping.com/GetImage.ashx?g=d485eb3d-b39f-4122-bb2d-d30fb6b8fdbe&w=350&h=350","Description":""}],"Documents":[]},{"$id":"469","ID":"f86835ca-0b83-4e9e-9f06-e9a37dc26e5f","LastUpdated":"2017-02-07T16:13:03.143","Name":"02.25.11 Gilze-Rijenhof 184","AddressLine1":"Gilze-Rijenhof 184","Suburb":"De Venen Centrum","City":"Pijnacker","Area":"","PostCode":"2631 LB","Ref":"","AssetCount":8,"Lat":"52,04646","Lng":"4,383566","ChildLocations":[],"Images":[{"$id":"470","ID":"d684f5df-e0c5-4dd8-8551-c54fdc65a594","LastUpdated":"2010-07-06T18:52:35.627","URI":"http://www.playmapping.com/GetImage.ashx?g=d684f5df-e0c5-4dd8-8551-c54fdc65a594&w=350&h=350","Description":""}],"Documents":[]},{"$id":"471","ID":"e580ab3d-3203-4d0a-9967-a12f8caf8712","LastUpdated":"2017-02-07T16:13:12.973","Name":"02.25.12 Windlusthof 30","AddressLine1":"Windlusthof 30","Suburb":"De Venen Centrum","City":"Nootdorp","Area":"","PostCode":"2631 EX","Ref":"","AssetCount":8,"Lat":"52,04384","Lng":"4,38698","ChildLocations":[],"Images":[{"$id":"472","ID":"ad51a269-077e-4ce4-88a7-924107655512","LastUpdated":"2011-03-18T10:51:07","URI":"http://www.playmapping.com/GetImage.ashx?g=ad51a269-077e-4ce4-88a7-924107655512&w=350&h=350","Description":""},{"$id":"473","ID":"b41054f0-d739-4105-ba03-a4b95bd6a0f7","LastUpdated":"2016-04-06T13:50:30.37","URI":"http://www.playmapping.com/GetImage.ashx?g=b41054f0-d739-4105-ba03-a4b95bd6a0f7&w=350&h=350","Description":""}],"Documents":[]},{"$id":"474","ID":"c951ac35-2187-4736-9cb4-87cc0a497a05","LastUpdated":"2017-02-07T16:13:22.87","Name":"02.25.13 Neogotiekhof 46","AddressLine1":"Neogotiekhof 46","Suburb":"De Venen Centrum","City":"Nootdorp","Area":"","PostCode":"2632 DH","Ref":"","AssetCount":8,"Lat":"52,04826","Lng":"4,385744","ChildLocations":[],"Images":[{"$id":"475","ID":"298e6518-9cfd-4e96-9f82-13f48017be9e","LastUpdated":"2011-03-18T11:13:22","URI":"http://www.playmapping.com/GetImage.ashx?g=298e6518-9cfd-4e96-9f82-13f48017be9e&w=350&h=350","Description":""},{"$id":"476","ID":"8fde6c32-d220-4a6d-b8a3-6e50f6df7844","LastUpdated":"2016-05-17T14:57:37.86","URI":"http://www.playmapping.com/GetImage.ashx?g=8fde6c32-d220-4a6d-b8a3-6e50f6df7844&w=350&h=350","Description":""}],"Documents":[]},{"$id":"477","ID":"0b261775-c797-42b0-b593-bea2aa75491c","LastUpdated":"2017-02-07T16:13:33.69","Name":"02.25.14 Droppinghof 15","AddressLine1":"Droppinghof 15","Suburb":"De Venen Centrum","City":"Nootdorp","Area":"","PostCode":"2632 EA","Ref":"","AssetCount":8,"Lat":"52,04736","Lng":"4,389045","ChildLocations":[],"Images":[{"$id":"478","ID":"c4c8d311-f14f-4625-a76f-35794863cdc8","LastUpdated":"2014-05-01T09:38:04.45","URI":"http://www.playmapping.com/GetImage.ashx?g=c4c8d311-f14f-4625-a76f-35794863cdc8&w=350&h=350","Description":""},{"$id":"479","ID":"289b2789-ce48-4d9a-ad01-a7a7d6ca36d2","LastUpdated":"2016-04-06T14:01:11.633","URI":"http://www.playmapping.com/GetImage.ashx?g=289b2789-ce48-4d9a-ad01-a7a7d6ca36d2&w=350&h=350","Description":""},{"$id":"480","ID":"a854a486-6308-4763-b831-a88d2e7aa1e9","LastUpdated":"2013-04-18T11:55:35.23","URI":"http://www.playmapping.com/GetImage.ashx?g=a854a486-6308-4763-b831-a88d2e7aa1e9&w=350&h=350","Description":""}],"Documents":[]},{"$id":"481","ID":"e93bc6c1-f3a0-436b-b2e4-8eef5cbd519f","LastUpdated":"2017-02-07T16:13:42.983","Name":"02.25.15 Verkeerstorenlaan / Vliehors","AddressLine1":"Verkeerstorenlaan / Vliehors","Suburb":"De Venen Centrum","City":"Nootdorp","Area":"","PostCode":"2631 MM","Ref":"","AssetCount":4,"Lat":"52,04282","Lng":"4,376839","ChildLocations":[],"Images":[{"$id":"482","ID":"2caa1421-dece-498b-a670-696aa570c002","LastUpdated":"2016-04-05T11:21:11.553","URI":"http://www.playmapping.com/GetImage.ashx?g=2caa1421-dece-498b-a670-696aa570c002&w=350&h=350","Description":""},{"$id":"483","ID":"1e17c313-fa42-4fb6-ad5e-92c58ee1ec39","LastUpdated":"2015-05-01T06:20:56.95","URI":"http://www.playmapping.com/GetImage.ashx?g=1e17c313-fa42-4fb6-ad5e-92c58ee1ec39&w=350&h=350","Description":""}],"Documents":[]}],"Images":[],"Documents":[]},{"$id":"484","ID":"cf94471b-b495-41d6-b2c6-bdd2e9cfb1a1","LastUpdated":"2017-02-07T15:56:56.123","Name":"26 De Venen/Craeyenburch","AddressLine1":"","Suburb":"","City":"","Area":"","PostCode":"","Ref":"","AssetCount":0,"Lat":"0","Lng":"0","ChildLocations":[{"$id":"485","ID":"16c0f90e-c556-4752-a3ea-9e45cd6e30ae","LastUpdated":"2017-02-07T16:06:25.78","Name":"02.26.01 Marsdiep 10","AddressLine1":"Marsdiep 10","Suburb":"De Venen/Craeyenburch","City":"Nootdorp","Area":"","PostCode":"2631 NL","Ref":"","AssetCount":14,"Lat":"52,04145","Lng":"4,37614","ChildLocations":[],"Images":[{"$id":"486","ID":"48f62b56-525b-42f0-8614-7af178589670","LastUpdated":"2014-05-01T08:24:22.917","URI":"http://www.playmapping.com/GetImage.ashx?g=48f62b56-525b-42f0-8614-7af178589670&w=350&h=350","Description":""},{"$id":"487","ID":"958b9145-cdae-4734-a6f3-f452158dec9d","LastUpdated":"2010-07-06T18:52:42.07","URI":"http://www.playmapping.com/GetImage.ashx?g=958b9145-cdae-4734-a6f3-f452158dec9d&w=350&h=350","Description":""}],"Documents":[]},{"$id":"488","ID":"47a33dd4-757c-4c0d-baf2-2b1511ea9238","LastUpdated":"2017-02-07T16:06:34.82","Name":"02.26.02 Vliehors 12","AddressLine1":"Vliehors 12","Suburb":"De Venen/Craeyenburch","City":"Nootdorp","Area":"","PostCode":"2631 MM","Ref":"","AssetCount":4,"Lat":"52,04249","Lng":"4,377734","ChildLocations":[],"Images":[{"$id":"489","ID":"8ac5832e-7a8e-47c1-a66a-2cdf4942b307","LastUpdated":"2011-09-19T11:55:08","URI":"http://www.playmapping.com/GetImage.ashx?g=8ac5832e-7a8e-47c1-a66a-2cdf4942b307&w=350&h=350","Description":""}],"Documents":[]}],"Images":[],"Documents":[]},{"$id":"490","ID":"9948c59b-cf3f-48a9-a3a4-7adb61e9b214","LastUpdated":"2017-02-07T15:57:17.57","Name":"27 De Venen Oost","AddressLine1":"","Suburb":"","City":"","Area":"","PostCode":"","Ref":"","AssetCount":0,"Lat":"0","Lng":"0","ChildLocations":[{"$id":"491","ID":"d9d7ab0b-9ad8-4fd1-a22c-8bf488b40f3c","LastUpdated":"2017-02-07T16:05:22.6","Name":"02.27.01 Maria van Wilsveenhof 32","AddressLine1":"Maria van Wilsveenhof 32","Suburb":"De Venen Oost","City":"Nootdorp","Area":"","PostCode":"2632 DD","Ref":"","AssetCount":6,"Lat":"52,04976","Lng":"4,387767","ChildLocations":[],"Images":[{"$id":"492","ID":"ea998283-6ab3-4f15-a925-f1fe919b5f13","LastUpdated":"2010-07-06T18:52:41.817","URI":"http://www.playmapping.com/GetImage.ashx?g=ea998283-6ab3-4f15-a925-f1fe919b5f13&w=350&h=350","Description":""}],"Documents":[]},{"$id":"493","ID":"3498657c-9616-471f-9d29-61afada9c6e9","LastUpdated":"2017-02-07T16:05:33.043","Name":"02.27.02 Delflandstraat 19-37-57","AddressLine1":"Delflandstraat 19, 37 en 57","Suburb":"De Venen Oost","City":"Nootdorp","Area":"","PostCode":"2631 HA","Ref":"","AssetCount":10,"Lat":"52,05008","Lng":"4,394132","ChildLocations":[],"Images":[{"$id":"494","ID":"4646558c-a3e5-4c8f-9219-2b71ee3b3a34","LastUpdated":"2010-07-06T18:52:11.233","URI":"http://www.playmapping.com/GetImage.ashx?g=4646558c-a3e5-4c8f-9219-2b71ee3b3a34&w=350&h=350","Description":""},{"$id":"495","ID":"ffd400f5-2a00-4596-8229-939b5eee70a9","LastUpdated":"2010-07-06T18:52:28.853","URI":"http://www.playmapping.com/GetImage.ashx?g=ffd400f5-2a00-4596-8229-939b5eee70a9&w=350&h=350","Description":""}],"Documents":[]},{"$id":"496","ID":"6020a821-0a1e-4633-b53a-136bc2c0d0e5","LastUpdated":"2017-02-07T16:05:51.447","Name":"02.27.03 Sportparkweg Sporthal Jan Janssen","AddressLine1":"Sportparkweg 34","Suburb":"De Venen Oost","City":"Nootdorp","Area":"","PostCode":"2631 GA","Ref":"","AssetCount":4,"Lat":"52,04729","Lng":"4,391739","ChildLocations":[],"Images":[{"$id":"497","ID":"374db23a-f116-4547-a87f-943978d22f21","LastUpdated":"2010-07-06T18:52:29.037","URI":"http://www.playmapping.com/GetImage.ashx?g=374db23a-f116-4547-a87f-943978d22f21&w=350&h=350","Description":""}],"Documents":[]},{"$id":"498","ID":"b253b6c2-47ba-43b5-8abc-d53c794d79c4","LastUpdated":"2017-02-07T16:06:04.677","Name":"02.27.04 Sportparkweg Sportpark Centrum","AddressLine1":"Laan van Nootdorp 134","Suburb":"De Venen Oost","City":"Nootdorp","Area":"","PostCode":"2632 ED","Ref":"","AssetCount":2,"Lat":"52,04765","Lng":"4,391125","ChildLocations":[],"Images":[{"$id":"499","ID":"47e6d7d7-0f84-4db8-8aef-b6376661af4c","LastUpdated":"2015-04-30T08:44:32.33","URI":"http://www.playmapping.com/GetImage.ashx?g=47e6d7d7-0f84-4db8-8aef-b6376661af4c&w=350&h=350","Description":""},{"$id":"500","ID":"f6f1d249-faf3-4f02-a566-c827e4492897","LastUpdated":"2010-07-06T18:52:35.807","URI":"http://www.playmapping.com/GetImage.ashx?g=f6f1d249-faf3-4f02-a566-c827e4492897&w=350&h=350","Description":""}],"Documents":[]}],"Images":[],"Documents":[]}],"Images":[],"Documents":[]},{"$id":"501","ID":"d0278d70-7bce-450f-ad35-d762205ee7ac","LastUpdated":"2015-09-18T23:02:44.84","Name":"03 Delfgauw","AddressLine1":"","Suburb":"","City":"","Area":"","PostCode":"","Ref":"","AssetCount":1,"Lat":"0","Lng":"0","ChildLocations":[{"$id":"502","ID":"aa670dc3-bec2-4542-b046-23faa226de51","LastUpdated":"2015-09-18T23:02:44.343","Name":"31 Oud-Delfgauw","AddressLine1":"","Suburb":"","City":"","Area":"","PostCode":"","Ref":"","AssetCount":0,"Lat":"0","Lng":"0","ChildLocations":[{"$id":"503","ID":"2f74d3a9-eba9-48bb-80f3-2d174f4ce773","LastUpdated":"2017-02-05T11:56:47.563","Name":"03.31.01 Vrijenban 23","AddressLine1":"Vrijenban 23","Suburb":"Oud-Delfgauw","City":"Delfgauw","Area":"","PostCode":"2645 AS","Ref":"","AssetCount":10,"Lat":"52,0121","Lng":"4,396065","ChildLocations":[],"Images":[{"$id":"504","ID":"fc149229-df51-44b8-84e9-4313933e4550","LastUpdated":"2016-04-04T12:11:23.043","URI":"http://www.playmapping.com/GetImage.ashx?g=fc149229-df51-44b8-84e9-4313933e4550&w=350&h=350","Description":""},{"$id":"505","ID":"b5e40c07-ae29-43c9-9678-4ae1a07a8660","LastUpdated":"2016-04-04T12:08:30.607","URI":"http://www.playmapping.com/GetImage.ashx?g=b5e40c07-ae29-43c9-9678-4ae1a07a8660&w=350&h=350","Description":""},{"$id":"506","ID":"708d7b04-2798-415c-a2c3-6f5e99f601cc","LastUpdated":"2013-04-16T10:03:41.303","URI":"http://www.playmapping.com/GetImage.ashx?g=708d7b04-2798-415c-a2c3-6f5e99f601cc&w=350&h=350","Description":""},{"$id":"507","ID":"42d5623b-d1c0-4c8d-8a70-ab76830cd62e","LastUpdated":"2017-05-09T12:18:11.423","URI":"http://www.playmapping.com/GetImage.ashx?g=42d5623b-d1c0-4c8d-8a70-ab76830cd62e&w=350&h=350","Description":""}],"Documents":[]},{"$id":"508","ID":"4059e319-c48a-48da-a976-62077c167283","LastUpdated":"2017-02-05T11:56:39.017","Name":"03.31.02 Meikoninginlaan 30 trapveld","AddressLine1":"Meikoninginlaan 30","Suburb":"Oud-Delfgauw","City":"Delfgauw","Area":"","PostCode":"2645 NT","Ref":"","AssetCount":4,"Lat":"52,00842","Lng":"4,40063","ChildLocations":[],"Images":[{"$id":"509","ID":"f7ad6de0-5a74-4232-9aea-f1fa47e5366a","LastUpdated":"2017-05-09T12:08:23.283","URI":"http://www.playmapping.com/GetImage.ashx?g=f7ad6de0-5a74-4232-9aea-f1fa47e5366a&w=350&h=350","Description":""}],"Documents":[]},{"$id":"510","ID":"fecbb99b-e07d-4e10-8ddb-98a647efae29","LastUpdated":"2017-02-05T11:56:57.2","Name":"03.31.03  Vrijenban 58","AddressLine1":"Vrijenban 58","Suburb":"Oud-Delfgauw","City":"Delfgauw","Area":"","PostCode":"2645 AS","Ref":"","AssetCount":4,"Lat":"52,01102","Lng":"4,39643","ChildLocations":[],"Images":[{"$id":"511","ID":"30ae4e9e-cc8a-47ac-97ab-b1a893138b8e","LastUpdated":"2010-07-06T18:52:33.48","URI":"http://www.playmapping.com/GetImage.ashx?g=30ae4e9e-cc8a-47ac-97ab-b1a893138b8e&w=350&h=350","Description":""}],"Documents":[]},{"$id":"512","ID":"22829334-2aa6-4cb8-9ed2-b9ac6ab0192e","LastUpdated":"2017-03-29T19:40:48.4","Name":"03.31.04 Saaymans Vaderplein 1","AddressLine1":"Saaymans Vaderplein 1","Suburb":"Oud-Delfgauw","City":"Delfgauw","Area":"","PostCode":"2645 AN","Ref":"","AssetCount":8,"Lat":"52,01005","Lng":"4,39316","ChildLocations":[],"Images":[{"$id":"513","ID":"ce0df5b3-cc44-4b87-b2a4-0f80772e0c69","LastUpdated":"2011-03-16T12:52:19","URI":"http://www.playmapping.com/GetImage.ashx?g=ce0df5b3-cc44-4b87-b2a4-0f80772e0c69&w=350&h=350","Description":""}],"Documents":[]},{"$id":"514","ID":"17bb3e91-cead-47d9-9aa6-bc609dc9e4a2","LastUpdated":"2017-03-29T19:40:59.447","Name":"03.31.05 Weth. Sonneveldhof 54","AddressLine1":"Wethouder Sonneveldhof 54","Suburb":"Oud-Delfgauw","City":"Delfgauw","Area":"","PostCode":"2645 BN","Ref":"","AssetCount":10,"Lat":"52,00946","Lng":"4,390808","ChildLocations":[],"Images":[{"$id":"515","ID":"9c9cfc93-f244-40b9-a1bf-6c9beef8f680","LastUpdated":"2017-05-09T11:40:05.283","URI":"http://www.playmapping.com/GetImage.ashx?g=9c9cfc93-f244-40b9-a1bf-6c9beef8f680&w=350&h=350","Description":""},{"$id":"516","ID":"77aa344a-cd75-4ba2-901b-805cf04e3d90","LastUpdated":"2017-04-20T10:58:32.013","URI":"http://www.playmapping.com/GetImage.ashx?g=77aa344a-cd75-4ba2-901b-805cf04e3d90&w=350&h=350","Description":""},{"$id":"517","ID":"9860c1a6-2c64-486e-b334-95620978dc1a","LastUpdated":"2010-07-06T18:52:29.18","URI":"http://www.playmapping.com/GetImage.ashx?g=9860c1a6-2c64-486e-b334-95620978dc1a&w=350&h=350","Description":""},{"$id":"518","ID":"e98af692-bed1-4cbb-b529-d1c3f2ed5de9","LastUpdated":"2016-04-04T12:46:30.17","URI":"http://www.playmapping.com/GetImage.ashx?g=e98af692-bed1-4cbb-b529-d1c3f2ed5de9&w=350&h=350","Description":""}],"Documents":[]},{"$id":"519","ID":"e97eed1a-eb1e-478d-b2fc-03f896934179","LastUpdated":"2017-03-29T19:41:11.64","Name":"03.31.06 Eminentlaan 11","AddressLine1":"Renovalaan 1","Suburb":"Oud-Delfgauw","City":"Delfgauw","Area":"","PostCode":"2645 NN","Ref":"","AssetCount":4,"Lat":"52,00768","Lng":"4,397617","ChildLocations":[],"Images":[{"$id":"520","ID":"339963d2-95ad-4781-af68-3c7557a780c5","LastUpdated":"2011-09-15T07:16:20","URI":"http://www.playmapping.com/GetImage.ashx?g=339963d2-95ad-4781-af68-3c7557a780c5&w=350&h=350","Description":""},{"$id":"521","ID":"e01c3103-3ae2-4674-8f45-42602f65e686","LastUpdated":"2016-04-04T13:48:13.39","URI":"http://www.playmapping.com/GetImage.ashx?g=e01c3103-3ae2-4674-8f45-42602f65e686&w=350&h=350","Description":""},{"$id":"522","ID":"accca6c0-d22a-4967-b868-d929b9105b77","LastUpdated":"2017-05-09T11:50:00.893","URI":"http://www.playmapping.com/GetImage.ashx?g=accca6c0-d22a-4967-b868-d929b9105b77&w=350&h=350","Description":""},{"$id":"523","ID":"b673f7f3-5ac7-45b9-805d-fcb387763f6e","LastUpdated":"2010-07-06T18:52:43.107","URI":"http://www.playmapping.com/GetImage.ashx?g=b673f7f3-5ac7-45b9-805d-fcb387763f6e&w=350&h=350","Description":""}],"Documents":[]},{"$id":"524","ID":"7b52dbe1-e131-42c2-9f6e-8e9aaf7fc2aa","LastUpdated":"2017-03-29T19:41:50.89","Name":"03.31.07 Triumphlaan/Victorylaan 5","AddressLine1":"Triumphlaan/Victorylaan 5","Suburb":"Oud-Delfgauw","City":"Delfgauw","Area":"","PostCode":"2645 NP","Ref":"","AssetCount":6,"Lat":"52,00806","Lng":"4,399061","ChildLocations":[],"Images":[{"$id":"525","ID":"dd209391-4469-488d-ac89-0306e18b971f","LastUpdated":"2017-05-09T11:45:48.657","URI":"http://www.playmapping.com/GetImage.ashx?g=dd209391-4469-488d-ac89-0306e18b971f&w=350&h=350","Description":""},{"$id":"526","ID":"85468406-d04b-4300-acd6-1d45fea45696","LastUpdated":"2016-04-04T13:16:39.467","URI":"http://www.playmapping.com/GetImage.ashx?g=85468406-d04b-4300-acd6-1d45fea45696&w=350&h=350","Description":""},{"$id":"527","ID":"a51680f0-6b59-4aef-9e0c-4bf1509c117d","LastUpdated":"2011-09-15T07:26:48","URI":"http://www.playmapping.com/GetImage.ashx?g=a51680f0-6b59-4aef-9e0c-4bf1509c117d&w=350&h=350","Description":""},{"$id":"528","ID":"fbb9628d-211a-462e-9fb3-ae8cb5d95b7e","LastUpdated":"2010-07-06T18:52:33.113","URI":"http://www.playmapping.com/GetImage.ashx?g=fbb9628d-211a-462e-9fb3-ae8cb5d95b7e&w=350&h=350","Description":""}],"Documents":[]}],"Images":[],"Documents":[]},{"$id":"529","ID":"a35a71ab-e02d-415f-8fb7-8e4aa47ddea0","LastUpdated":"2017-02-07T14:46:19.66","Name":"32 Emerald Noord","AddressLine1":"","Suburb":"","City":"","Area":"","PostCode":"","Ref":"","AssetCount":0,"Lat":"0","Lng":"0","ChildLocations":[{"$id":"530","ID":"b1f1bc6f-3869-4282-8fc0-153a1ea8a12d","LastUpdated":"2017-02-07T15:17:53.677","Name":"03.32.01 Padmoes 1","AddressLine1":"Padmoes 1","Suburb":"Emerald Noord","City":"Delfgauw","Area":"","PostCode":"2645 GA","Ref":"","AssetCount":4,"Lat":"52,00744","Lng":"4,388702","ChildLocations":[],"Images":[{"$id":"531","ID":"d9b71d5a-f32a-4cf6-9a03-dfb6aa18d9d0","LastUpdated":"2017-05-09T12:23:03.783","URI":"http://www.playmapping.com/GetImage.ashx?g=d9b71d5a-f32a-4cf6-9a03-dfb6aa18d9d0&w=350&h=350","Description":""}],"Documents":[]},{"$id":"532","ID":"2c8ce18d-19e1-49cd-8fda-6d87fcb8a83a","LastUpdated":"2017-02-07T15:30:22.043","Name":"03.32.02 Delftsestraatweg 221","AddressLine1":"Delftsestraatweg 221","Suburb":"Emerald Noord","City":"Delfgauw","Area":"","PostCode":"2645 BA","Ref":"","AssetCount":2,"Lat":"52,00789","Lng":"4,389788","ChildLocations":[],"Images":[{"$id":"533","ID":"27f47ba6-864e-43e0-8089-5332e607e599","LastUpdated":"2011-09-15T09:51:07","URI":"http://www.playmapping.com/GetImage.ashx?g=27f47ba6-864e-43e0-8089-5332e607e599&w=350&h=350","Description":""},{"$id":"534","ID":"700da5c5-ecc6-4211-adc1-a113084e3cb7","LastUpdated":"2016-03-02T15:09:27.857","URI":"http://www.playmapping.com/GetImage.ashx?g=700da5c5-ecc6-4211-adc1-a113084e3cb7&w=350&h=350","Description":""}],"Documents":[]},{"$id":"535","ID":"61893146-466f-4868-9148-0a8285ea6ec7","LastUpdated":"2017-02-07T15:18:14.677","Name":"03.32.03 Böckelhove 6","AddressLine1":"Böckelhove 6","Suburb":"Emerald Noord","City":"Delfgauw","Area":"","PostCode":"2645 GM","Ref":"","AssetCount":11,"Lat":"52,00723","Lng":"4,391766","ChildLocations":[],"Images":[{"$id":"536","ID":"9bbc9944-fb80-440c-b2fa-5838ec42c19c","LastUpdated":"2016-02-22T12:38:35.407","URI":"http://www.playmapping.com/GetImage.ashx?g=9bbc9944-fb80-440c-b2fa-5838ec42c19c&w=350&h=350","Description":""},{"$id":"537","ID":"55687914-2401-456d-add1-eaec21edaaa2","LastUpdated":"2010-07-06T18:52:40.66","URI":"http://www.playmapping.com/GetImage.ashx?g=55687914-2401-456d-add1-eaec21edaaa2&w=350&h=350","Description":""}],"Documents":[]},{"$id":"538","ID":"92e154d6-a55a-40aa-b08a-ac7da1e9f933","LastUpdated":"2017-02-07T15:18:24.623","Name":"03.32.04 Tijdemanhove 11","AddressLine1":"Tijdemanhove 11","Suburb":"Emerald Noord","City":"Delfgauw","Area":"","PostCode":"2645 GL","Ref":"","AssetCount":7,"Lat":"52,0067","Lng":"4,394815","ChildLocations":[],"Images":[{"$id":"539","ID":"7e3ef3d4-56d6-43eb-8b38-d5c595d2b45c","LastUpdated":"2017-04-18T13:43:33.93","URI":"http://www.playmapping.com/GetImage.ashx?g=7e3ef3d4-56d6-43eb-8b38-d5c595d2b45c&w=350&h=350","Description":""},{"$id":"540","ID":"533cb791-42d5-422d-b103-f64a75ce83b2","LastUpdated":"2010-07-06T18:52:42.403","URI":"http://www.playmapping.com/GetImage.ashx?g=533cb791-42d5-422d-b103-f64a75ce83b2&w=350&h=350","Description":""}],"Documents":[]},{"$id":"541","ID":"87385c3e-ff31-4e03-9784-a0cf00cdada7","LastUpdated":"2017-02-07T15:33:30.657","Name":"03.32.05 Hollandsche Tuyn 1","AddressLine1":"Hollandsche Tuyn 1","Suburb":"Emerald Noord","City":"Delfgauw","Area":"","PostCode":"2645 HJ","Ref":"","AssetCount":3,"Lat":"52,00641","Lng":"4,396379","ChildLocations":[],"Images":[{"$id":"542","ID":"0f71e155-fdef-4725-9435-19e9cb4e4208","LastUpdated":"2010-07-06T18:52:05.887","URI":"http://www.playmapping.com/GetImage.ashx?g=0f71e155-fdef-4725-9435-19e9cb4e4208&w=350&h=350","Description":""},{"$id":"543","ID":"18027e41-9c77-4958-9758-3a072dc8cc3b","LastUpdated":"2014-10-08T09:40:55.957","URI":"http://www.playmapping.com/GetImage.ashx?g=18027e41-9c77-4958-9758-3a072dc8cc3b&w=350&h=350","Description":""},{"$id":"544","ID":"96bff17a-27e7-4a4d-9655-ba3896225382","LastUpdated":"2016-02-12T13:20:01.513","URI":"http://www.playmapping.com/GetImage.ashx?g=96bff17a-27e7-4a4d-9655-ba3896225382&w=350&h=350","Description":""}],"Documents":[]}],"Images":[],"Documents":[]},{"$id":"545","ID":"47785773-ba64-46f7-985f-8fe49026098f","LastUpdated":"2017-02-07T14:46:56.063","Name":"33 Emerald Centrum","AddressLine1":"","Suburb":"","City":"","Area":"","PostCode":"","Ref":"","AssetCount":0,"Lat":"0","Lng":"0","ChildLocations":[{"$id":"546","ID":"6777b814-36d7-473f-b267-4d6f565dfffe","LastUpdated":"2017-02-07T15:20:02.357","Name":"03.33.01 Smaldelerstraat 13","AddressLine1":"Smaldelerstraat 13","Suburb":"Emerald Centrum","City":"Delfgauw","Area":"","PostCode":"2645 KL","Ref":"","AssetCount":9,"Lat":"52,00225","Lng":"4,398492","ChildLocations":[],"Images":[{"$id":"547","ID":"28ec66c5-0d0f-4381-98cf-0c38e9e79f94","LastUpdated":"2013-04-17T12:44:26.737","URI":"http://www.playmapping.com/GetImage.ashx?g=28ec66c5-0d0f-4381-98cf-0c38e9e79f94&w=350&h=350","Description":""},{"$id":"548","ID":"2340e6ce-d65d-454d-8a79-83d7caecc8b2","LastUpdated":"2016-02-12T13:24:21.96","URI":"http://www.playmapping.com/GetImage.ashx?g=2340e6ce-d65d-454d-8a79-83d7caecc8b2&w=350&h=350","Description":""},{"$id":"549","ID":"b9107ae7-fe71-44f5-9f72-90de564fbe15","LastUpdated":"2016-09-22T07:41:01.63","URI":"http://www.playmapping.com/GetImage.ashx?g=b9107ae7-fe71-44f5-9f72-90de564fbe15&w=350&h=350","Description":""},{"$id":"550","ID":"5fdaac24-c89c-4c5b-82c8-a7c3287f3838","LastUpdated":"2010-07-06T18:52:32.247","URI":"http://www.playmapping.com/GetImage.ashx?g=5fdaac24-c89c-4c5b-82c8-a7c3287f3838&w=350&h=350","Description":""}],"Documents":[]},{"$id":"551","ID":"25ff08c4-a806-45af-9a46-d3cbd3766344","LastUpdated":"2017-02-07T15:20:11.45","Name":"03.33.02 Slagturverstraat 4","AddressLine1":"Slagturverstraat 4","Suburb":"Emerald Centrum","City":"Delfgauw","Area":"","PostCode":"2645 KB","Ref":"","AssetCount":8,"Lat":"52,00205","Lng":"4,395762","ChildLocations":[],"Images":[{"$id":"552","ID":"ec9104b6-4e12-4ba9-b817-5df03c59c40b","LastUpdated":"2017-04-21T08:29:52.897","URI":"http://www.playmapping.com/GetImage.ashx?g=ec9104b6-4e12-4ba9-b817-5df03c59c40b&w=350&h=350","Description":""},{"$id":"553","ID":"5f4f05e6-f519-4cd2-b269-f1a5721309c9","LastUpdated":"2010-07-06T18:52:41.537","URI":"http://www.playmapping.com/GetImage.ashx?g=5f4f05e6-f519-4cd2-b269-f1a5721309c9&w=350&h=350","Description":""}],"Documents":[]},{"$id":"554","ID":"9eb6db5b-4600-4d61-90fe-0774cb631c68","LastUpdated":"2017-02-07T15:20:21.757","Name":"03.33.03 Gaardenierstraat 19","AddressLine1":"Gaardernierstraat 19","Suburb":"Emerald Centrum","City":"Delfgauw","Area":"","PostCode":"2645 JA","Ref":"","AssetCount":6,"Lat":"52,00372","Lng":"4,393376","ChildLocations":[],"Images":[{"$id":"555","ID":"b360532a-9517-44f2-a150-38de3ed5e09b","LastUpdated":"2017-03-11T20:13:37.477","URI":"http://www.playmapping.com/GetImage.ashx?g=b360532a-9517-44f2-a150-38de3ed5e09b&w=350&h=350","Description":""},{"$id":"556","ID":"4c3f4ecd-44d6-4f0f-85bf-99bd3cc8d8b0","LastUpdated":"2016-04-01T07:46:03.323","URI":"http://www.playmapping.com/GetImage.ashx?g=4c3f4ecd-44d6-4f0f-85bf-99bd3cc8d8b0&w=350&h=350","Description":""},{"$id":"557","ID":"0f920d5b-c201-48de-a102-dcafed002052","LastUpdated":"2010-07-06T18:52:38.45","URI":"http://www.playmapping.com/GetImage.ashx?g=0f920d5b-c201-48de-a102-dcafed002052&w=350&h=350","Description":""}],"Documents":[]},{"$id":"558","ID":"dcb96cfe-e900-4563-8f6d-ae2e166a0beb","LastUpdated":"2017-02-07T15:20:30.617","Name":"03.33.04 Warmoezierstraat 32 /Zaaierstraat","AddressLine1":"Warmoezierstraat 32 /Zaaierstraat","Suburb":"Emerald Centrum","City":"Delfgauw","Area":"","PostCode":"2645 JE","Ref":"","AssetCount":16,"Lat":"52,00246","Lng":"4,39395","ChildLocations":[],"Images":[{"$id":"559","ID":"83fe7b36-072c-4bdb-a606-6f85f5fb8935","LastUpdated":"2016-03-31T14:09:28.323","URI":"http://www.playmapping.com/GetImage.ashx?g=83fe7b36-072c-4bdb-a606-6f85f5fb8935&w=350&h=350","Description":""},{"$id":"560","ID":"428ad815-801a-4ec6-b18f-8cd191d1728c","LastUpdated":"2010-07-06T18:52:27.643","URI":"http://www.playmapping.com/GetImage.ashx?g=428ad815-801a-4ec6-b18f-8cd191d1728c&w=350&h=350","Description":""},{"$id":"561","ID":"e2441449-9ead-4a82-a96c-9829332e0a44","LastUpdated":"2010-07-06T18:52:29.673","URI":"http://www.playmapping.com/GetImage.ashx?g=e2441449-9ead-4a82-a96c-9829332e0a44&w=350&h=350","Description":""}],"Documents":[]},{"$id":"562","ID":"38b06e1b-35c1-4f7a-b8c1-cd76c9c82737","LastUpdated":"2017-02-07T15:07:46.42","Name":"03.33.05 Azijnmakerstraat 24","AddressLine1":"Azijnmakerstraat 24","Suburb":"Emerald Centrum","City":"Delfgauw","Area":"","PostCode":"2645 JX","Ref":"","AssetCount":4,"Lat":"52,00199","Lng":"4,390213","ChildLocations":[],"Images":[{"$id":"563","ID":"4763e574-ec72-45bd-99d2-44468d188da6","LastUpdated":"2016-04-04T07:38:17.91","URI":"http://www.playmapping.com/GetImage.ashx?g=4763e574-ec72-45bd-99d2-44468d188da6&w=350&h=350","Description":""},{"$id":"564","ID":"f4d97019-fc7e-4fb0-9240-4a3e8735a197","LastUpdated":"2010-07-06T18:52:16.083","URI":"http://www.playmapping.com/GetImage.ashx?g=f4d97019-fc7e-4fb0-9240-4a3e8735a197&w=350&h=350","Description":""},{"$id":"565","ID":"e6ec6661-32bf-4492-9514-f9b3c72031ac","LastUpdated":"2016-09-28T10:47:28.847","URI":"http://www.playmapping.com/GetImage.ashx?g=e6ec6661-32bf-4492-9514-f9b3c72031ac&w=350&h=350","Description":""}],"Documents":[]},{"$id":"566","ID":"94c1f4c1-c7c8-42b6-b22b-301a5c70daf5","LastUpdated":"2017-02-07T15:07:02.507","Name":"03.33.06 Azijnmakerstraat 6","AddressLine1":"Azijnmakerstraat 16","Suburb":"Emerald Centrum","City":"Delfgauw","Area":"","PostCode":"2645 JW","Ref":"","AssetCount":2,"Lat":"52,00281","Lng":"4,389823","ChildLocations":[],"Images":[{"$id":"567","ID":"8e3da8cf-cd71-4f86-8435-3345a9c70dd2","LastUpdated":"2017-03-11T20:07:22.663","URI":"http://www.playmapping.com/GetImage.ashx?g=8e3da8cf-cd71-4f86-8435-3345a9c70dd2&w=350&h=350","Description":""}],"Documents":[]},{"$id":"568","ID":"9f1ca887-44a6-4376-bed8-03ad6f9b4424","LastUpdated":"2017-02-07T15:20:54.983","Name":"03.33.07 Park Koperslagerstraat 18","AddressLine1":"Park Koperslagerstraat 18","Suburb":"Emerald Centrum","City":"Delfgauw","Area":"","PostCode":"2645 JM","Ref":"","AssetCount":8,"Lat":"52,0034","Lng":"4,389796","ChildLocations":[],"Images":[{"$id":"569","ID":"be299aad-6ada-4c5b-8faa-f22516b5a81a","LastUpdated":"2010-07-06T18:52:41.863","URI":"http://www.playmapping.com/GetImage.ashx?g=be299aad-6ada-4c5b-8faa-f22516b5a81a&w=350&h=350","Description":""}],"Documents":[]},{"$id":"570","ID":"18f95f8e-7e3d-469a-b56a-bea5cf196a69","LastUpdated":"2017-02-07T15:21:09.877","Name":"03.33.08 Pondstraat 26","AddressLine1":"Pondstraat 26","Suburb":"Emerald Centrum","City":"Delfgauw","Area":"","PostCode":"2645 GZ","Ref":"","AssetCount":10,"Lat":"52,00356","Lng":"4,388895","ChildLocations":[],"Images":[{"$id":"571","ID":"00cae162-025e-4184-bd93-43979a610c93","LastUpdated":"2010-07-06T18:52:15.33","URI":"http://www.playmapping.com/GetImage.ashx?g=00cae162-025e-4184-bd93-43979a610c93&w=350&h=350","Description":""}],"Documents":[]},{"$id":"572","ID":"fcb8bdbb-279c-4846-98dd-5545ba9da144","LastUpdated":"2017-02-07T15:21:21.677","Name":"03.33.09 Laan der Zeven Linden 161","AddressLine1":"Laan der Zeven Linden 161","Suburb":"Emerald Centrum","City":"Delfgauw","Area":"","PostCode":"2645 GV","Ref":"","AssetCount":6,"Lat":"52,0044","Lng":"4,390711","ChildLocations":[],"Images":[{"$id":"573","ID":"cdd8722d-e53f-4ff6-8c70-639b7006c553","LastUpdated":"2016-04-04T08:21:56.363","URI":"http://www.playmapping.com/GetImage.ashx?g=cdd8722d-e53f-4ff6-8c70-639b7006c553&w=350&h=350","Description":""},{"$id":"574","ID":"35032256-781e-4785-84b4-7ad95d7b1e11","LastUpdated":"2010-07-06T18:52:24.807","URI":"http://www.playmapping.com/GetImage.ashx?g=35032256-781e-4785-84b4-7ad95d7b1e11&w=350&h=350","Description":""}],"Documents":[]},{"$id":"575","ID":"f2979efb-9cba-48b6-965a-f33717c49295","LastUpdated":"2017-02-07T15:21:32.37","Name":"03.33.10 Schellingstraat 9","AddressLine1":"Schellingstraat 9","Suburb":"Emerald Centrum","City":"Delfgauw","Area":"","PostCode":"2645 HA","Ref":"","AssetCount":10,"Lat":"52,00603","Lng":"4,392736","ChildLocations":[],"Images":[{"$id":"576","ID":"2e3203a2-6033-48b1-a8a3-0f8f4de15085","LastUpdated":"2015-11-09T10:56:08.813","URI":"http://www.playmapping.com/GetImage.ashx?g=2e3203a2-6033-48b1-a8a3-0f8f4de15085&w=350&h=350","Description":""},{"$id":"577","ID":"dc91cd59-19f5-434d-9971-4c76bde1c7d4","LastUpdated":"2013-04-16T13:49:13.167","URI":"http://www.playmapping.com/GetImage.ashx?g=dc91cd59-19f5-434d-9971-4c76bde1c7d4&w=350&h=350","Description":""},{"$id":"578","ID":"3a15b12e-5472-48d7-845e-97390b7dea94","LastUpdated":"2016-04-01T08:24:43.387","URI":"http://www.playmapping.com/GetImage.ashx?g=3a15b12e-5472-48d7-845e-97390b7dea94&w=350&h=350","Description":""}],"Documents":[]},{"$id":"579","ID":"07abacc5-fd54-4d8c-bced-4cd5bd786ea3","LastUpdated":"2017-02-07T15:04:08.76","Name":"03.33.11 Schellingstraat 42","AddressLine1":"Schellingstraat 42","Suburb":"Emerald","City":"Delfgauw","Area":"","PostCode":"2645 HB","Ref":"","AssetCount":8,"Lat":"52,00428","Lng":"4,395864","ChildLocations":[],"Images":[{"$id":"580","ID":"259da5f5-6e8d-447f-9ddc-f465a953dccc","LastUpdated":"2010-07-06T18:52:42.133","URI":"http://www.playmapping.com/GetImage.ashx?g=259da5f5-6e8d-447f-9ddc-f465a953dccc&w=350&h=350","Description":""}],"Documents":[]},{"$id":"581","ID":"1b083bff-18ef-4181-b7ae-b1832052af25","LastUpdated":"2017-02-07T15:04:29.417","Name":"03.33.12 PSZ Pepijn Florijnstraat 9","AddressLine1":"Florijnstraat 9","Suburb":"Emerald","City":"Delfgauw","Area":"","PostCode":"2645 HH","Ref":"","AssetCount":4,"Lat":"52,00368","Lng":"4,395016","ChildLocations":[],"Images":[{"$id":"582","ID":"499e2c16-0a9e-4bb4-a7bc-0ae864245450","LastUpdated":"2016-04-01T08:13:04.31","URI":"http://www.playmapping.com/GetImage.ashx?g=499e2c16-0a9e-4bb4-a7bc-0ae864245450&w=350&h=350","Description":""},{"$id":"583","ID":"ea2f1308-f1a6-4c9a-83d4-233adaf29ce1","LastUpdated":"2010-07-06T18:52:08.88","URI":"http://www.playmapping.com/GetImage.ashx?g=ea2f1308-f1a6-4c9a-83d4-233adaf29ce1&w=350&h=350","Description":""}],"Documents":[]}],"Images":[],"Documents":[]},{"$id":"584","ID":"227afdc5-d4d1-49ae-a115-3517ca72e819","LastUpdated":"2017-02-07T14:47:35.867","Name":"34 Emerald Zuid","AddressLine1":"","Suburb":"","City":"","Area":"","PostCode":"","Ref":"","AssetCount":0,"Lat":"0","Lng":"0","ChildLocations":[{"$id":"585","ID":"2bad33ea-6cd3-47ec-8a7c-d22b390c4b3f","LastUpdated":"2017-02-07T15:10:42.3","Name":"03.34.01 Melkdragerhof 52 (trapveld)","AddressLine1":"Melkdragerhof 52","Suburb":"Emerald Zuid","City":"Delfgauw","Area":"","PostCode":"2645 LR","Ref":"","AssetCount":7,"Lat":"52,00051","Lng":"4,393387","ChildLocations":[],"Images":[{"$id":"586","ID":"de7102a3-ced0-4b05-8da4-1eedd488d258","LastUpdated":"2016-02-12T13:22:54.797","URI":"http://www.playmapping.com/GetImage.ashx?g=de7102a3-ced0-4b05-8da4-1eedd488d258&w=350&h=350","Description":""},{"$id":"587","ID":"50ab1a32-6343-41ad-b996-6ce23fb76c6b","LastUpdated":"2013-04-17T11:47:44.74","URI":"http://www.playmapping.com/GetImage.ashx?g=50ab1a32-6343-41ad-b996-6ce23fb76c6b&w=350&h=350","Description":""},{"$id":"588","ID":"c119acd3-bb80-468e-8092-818f095e1a7e","LastUpdated":"2010-07-06T18:52:25.743","URI":"http://www.playmapping.com/GetImage.ashx?g=c119acd3-bb80-468e-8092-818f095e1a7e&w=350&h=350","Description":""}],"Documents":[]},{"$id":"589","ID":"779b63dc-b159-41d3-b62c-29585cdd69d2","LastUpdated":"2017-02-07T15:10:31.1","Name":"03.34.02 Melkdragerhof 1","AddressLine1":"Melkdragerhof 1","Suburb":"Emerald Zuid","City":"Delfgauw","Area":"","PostCode":"2645 LL","Ref":"","AssetCount":4,"Lat":"52,00016","Lng":"4,394545","ChildLocations":[],"Images":[{"$id":"590","ID":"f995e11f-56d6-4614-ab95-63119922d3d4","LastUpdated":"2010-07-06T18:52:20.733","URI":"http://www.playmapping.com/GetImage.ashx?g=f995e11f-56d6-4614-ab95-63119922d3d4&w=350&h=350","Description":""}],"Documents":[]},{"$id":"591","ID":"e9849cd5-d812-4e1c-9cf9-2f2bbd6389b0","LastUpdated":"2017-02-07T15:11:00.01","Name":"03.34.03 Melkdragerhof 2","AddressLine1":"Melkdragerhof 2","Suburb":"Emerald Zuid","City":"Delfgauw","Area":"","PostCode":"2645 LP","Ref":"","AssetCount":4,"Lat":"52,00039","Lng":"4,395352","ChildLocations":[],"Images":[{"$id":"592","ID":"966e7d94-f52c-4e39-812d-f0b289d353ae","LastUpdated":"2010-07-06T18:52:41.373","URI":"http://www.playmapping.com/GetImage.ashx?g=966e7d94-f52c-4e39-812d-f0b289d353ae&w=350&h=350","Description":""}],"Documents":[]},{"$id":"593","ID":"152c47b5-769f-41f1-b202-8ab03c91b669","LastUpdated":"2017-02-07T15:11:19.303","Name":"03.34.04 Kerkmeesterstraat (Skatepark)","AddressLine1":"Kerkmeesterstraat (Skatepark)","Suburb":"Emerald Zuid","City":"Delfgauw","Area":"","PostCode":"2645 MA","Ref":"","AssetCount":24,"Lat":"52,00117","Lng":"4,396545","ChildLocations":[],"Images":[{"$id":"594","ID":"bfaaf714-18e4-45c9-80ad-5da51dbc9dbc","LastUpdated":"2017-04-21T06:42:58.423","URI":"http://www.playmapping.com/GetImage.ashx?g=bfaaf714-18e4-45c9-80ad-5da51dbc9dbc&w=350&h=350","Description":""},{"$id":"595","ID":"90d5296b-9b05-4d8f-9744-6449c1e382f5","LastUpdated":"2010-07-06T18:52:21.04","URI":"http://www.playmapping.com/GetImage.ashx?g=90d5296b-9b05-4d8f-9744-6449c1e382f5&w=350&h=350","Description":""}],"Documents":[]},{"$id":"596","ID":"7876e94e-49b1-47f5-a7c0-881bf76b7ba0","LastUpdated":"2017-02-07T15:11:35.78","Name":"03.34.05 Weesmeesterstraat 28","AddressLine1":"Weesmeesterstraat 28","Suburb":"Emerald","City":"Delfgauw","Area":"","PostCode":"2645 MC","Ref":"","AssetCount":4,"Lat":"52,00088","Lng":"4,399627","ChildLocations":[],"Images":[{"$id":"597","ID":"430bec64-bb14-43e6-9eef-7a1bf05aa0c8","LastUpdated":"2017-01-27T14:49:09.42","URI":"http://www.playmapping.com/GetImage.ashx?g=430bec64-bb14-43e6-9eef-7a1bf05aa0c8&w=350&h=350","Description":""},{"$id":"598","ID":"76e03d83-1b48-4cfb-91ee-ae95cbf30e28","LastUpdated":"2010-07-06T18:52:33.147","URI":"http://www.playmapping.com/GetImage.ashx?g=76e03d83-1b48-4cfb-91ee-ae95cbf30e28&w=350&h=350","Description":""}],"Documents":[]},{"$id":"599","ID":"455e46a1-c279-453e-bf0e-6f4d2da628e3","LastUpdated":"2017-02-07T15:11:49.633","Name":"03.34.06 Gaarderstraat 1","AddressLine1":"Gaarderstraat 1","Suburb":"Emerald","City":"Delfgauw","Area":"","PostCode":"2645 ME","Ref":"","AssetCount":4,"Lat":"51,99887","Lng":"4,398471","ChildLocations":[],"Images":[{"$id":"600","ID":"5a1bdfea-47fe-4874-985f-0e71fcb395a3","LastUpdated":"2016-02-26T12:20:16.43","URI":"http://www.playmapping.com/GetImage.ashx?g=5a1bdfea-47fe-4874-985f-0e71fcb395a3&w=350&h=350","Description":"Speelplek Gaarderstraat"},{"$id":"601","ID":"e87ff198-2337-4926-94bf-380cfd3297d2","LastUpdated":"2010-07-06T18:52:13.527","URI":"http://www.playmapping.com/GetImage.ashx?g=e87ff198-2337-4926-94bf-380cfd3297d2&w=350&h=350","Description":""}],"Documents":[]},{"$id":"602","ID":"be8ffd87-5763-4aea-af25-a1121b042026","LastUpdated":"2017-02-07T15:12:05.647","Name":"03.34.07 Letterzetterhof 33","AddressLine1":"Letterzetterhof 33","Suburb":"Emerald","City":"Delfgauw","Area":"","PostCode":"2645 LD","Ref":"","AssetCount":6,"Lat":"51,99876","Lng":"4,394448","ChildLocations":[],"Images":[{"$id":"603","ID":"82e9b735-8ba9-4bab-9390-118479306ab9","LastUpdated":"2017-04-21T06:21:20.017","URI":"http://www.playmapping.com/GetImage.ashx?g=82e9b735-8ba9-4bab-9390-118479306ab9&w=350&h=350","Description":""},{"$id":"604","ID":"bc0b14d6-6de5-4410-8013-eed7c1778f2d","LastUpdated":"2010-07-06T18:52:41.14","URI":"http://www.playmapping.com/GetImage.ashx?g=bc0b14d6-6de5-4410-8013-eed7c1778f2d&w=350&h=350","Description":""}],"Documents":[]},{"$id":"605","ID":"eeb03e24-eac0-4540-81d4-b8d16844d8f2","LastUpdated":"2017-02-07T15:12:19.423","Name":"03.34.08 Pottenbakkerstraat 91","AddressLine1":"Pottenbakkerstraat 91","Suburb":"Emerald","City":"Delfgauw","Area":"","PostCode":"2645 KS","Ref":"","AssetCount":6,"Lat":"51,99775","Lng":"4,392367","ChildLocations":[],"Images":[{"$id":"606","ID":"4c0f0322-49e0-425f-bab1-262007604a32","LastUpdated":"2010-07-06T18:52:10.023","URI":"http://www.playmapping.com/GetImage.ashx?g=4c0f0322-49e0-425f-bab1-262007604a32&w=350&h=350","Description":""}],"Documents":[]},{"$id":"607","ID":"16b5ebff-f68e-45fc-8460-15d5365a0afe","LastUpdated":"2017-02-07T15:12:31.963","Name":"03.34.09 Pottenbakkerstraat 27","AddressLine1":"105 Pottenbakkerstraat 27","Suburb":"Emerald","City":"Delfgauw","Area":"","PostCode":"2645 KR","Ref":"","AssetCount":2,"Lat":"51,9995","Lng":"4,39151","ChildLocations":[],"Images":[{"$id":"608","ID":"9331a8fa-3edf-4a83-b059-3f51c1051f7a","LastUpdated":"2016-03-02T16:14:29.947","URI":"http://www.playmapping.com/GetImage.ashx?g=9331a8fa-3edf-4a83-b059-3f51c1051f7a&w=350&h=350","Description":""},{"$id":"609","ID":"e57e23ff-b2f1-4de9-93e2-4a2a25370a91","LastUpdated":"2012-05-03T08:56:01","URI":"http://www.playmapping.com/GetImage.ashx?g=e57e23ff-b2f1-4de9-93e2-4a2a25370a91&w=350&h=350","Description":""},{"$id":"610","ID":"908cfdce-40a8-4afc-9f7f-d4a342bfa062","LastUpdated":"2010-07-06T18:52:37.54","URI":"http://www.playmapping.com/GetImage.ashx?g=908cfdce-40a8-4afc-9f7f-d4a342bfa062&w=350&h=350","Description":""}],"Documents":[]}],"Images":[],"Documents":[]}],"Images":[],"Documents":[]}],"Images":[],"Documents":[]}]